{"objectIdFieldName":"ID","uniqueIdField":{"name":"ID","isSystemMaintained":true},"globalIdFieldName":"GlobalID","geometryType":"esriGeometryPolygon","spatialReference":{"wkid":4326,"latestWkid":4326},"fields":[{"name":"ADM0_NAME","type":"esriFieldTypeString","alias":"ADM0_NAME","sqlType":"sqlTypeOther","length":255,"domain":null,"defaultValue":null},{"name":"DateOfReport","type":"esriFieldTypeDate","alias":"DateOfReport","sqlType":"sqlTypeOther","length":8,"domain":null,"defaultValue":null},{"name":"cum_conf","type":"esriFieldTypeInteger","alias":"cum_conf","sqlType":"sqlTypeOther","domain":null,"defaultValue":null},{"name":"cum_death","type":"esriFieldTypeInteger","alias":"cum_death","sqlType":"sqlTypeOther","domain":null,"defaultValue":null},{"name":"ID","type":"esriFieldTypeOID","alias":"ID","sqlType":"sqlTypeOther","domain":null,"defaultValue":null},{"name":"CENTER_LON","type":"esriFieldTypeDouble","alias":"CENTER_LON","sqlType":"sqlTypeOther","domain":null,"defaultValue":null},{"name":"CENTER_LAT","type":"esriFieldTypeDouble","alias":"CENTER_LAT","sqlType":"sqlTypeOther","domain":null,"defaultValue":null},{"name":"ADM0_VIZ_NAME","type":"esriFieldTypeString","alias":"ADM0_VIZ_NAME","sqlType":"sqlTypeOther","length":255,"domain":null,"defaultValue":null},{"name":"Short_Name_ZH","type":"esriFieldTypeString","alias":"Short_Name_ZH","sqlType":"sqlTypeOther","length":255,"domain":null,"defaultValue":null},{"name":"Short_Name_FR","type":"esriFieldTypeString","alias":"Short_Name_FR","sqlType":"sqlTypeOther","length":255,"domain":null,"defaultValue":null},{"name":"Short_Name_ES","type":"esriFieldTypeString","alias":"Short_Name_ES","sqlType":"sqlTypeOther","length":255,"domain":null,"defaultValue":null},{"name":"Short_Name_RU","type":"esriFieldTypeString","alias":"Short_Name_RU","sqlType":"sqlTypeOther","length":255,"domain":null,"defaultValue":null},{"name":"Short_Name_AR","type":"esriFieldTypeString","alias":"Short_Name_AR","sqlType":"sqlTypeOther","length":255,"domain":null,"defaultValue":null},{"name":"GlobalID","type":"esriFieldTypeGlobalID","alias":"GlobalID","sqlType":"sqlTypeOther","length":38,"domain":null}],"features":[{"attributes":{"ADM0_NAME":"Afghanistan","DateOfReport":1584316800000,"cum_conf":21,"cum_death":0,"ID":40873,"CENTER_LON":66.02652977,"CENTER_LAT":33.83890116,"ADM0_VIZ_NAME":"Afghanistan","Short_Name_ZH":"阿富汗","Short_Name_FR":"Afghanistan","Short_Name_ES":"Afganistán","Short_Name_RU":"Афганистан","Short_Name_AR":"أفغانستان","GlobalID":"30b698c1-88fb-4779-8046-3e70ae2e7de1"}},{"attributes":{"ADM0_NAME":"Albania","DateOfReport":1584316800000,"cum_conf":51,"cum_death":1,"ID":40874,"CENTER_LON":20.06917817,"CENTER_LAT":41.14595803,"ADM0_VIZ_NAME":"Albania","Short_Name_ZH":"阿尔巴尼亚","Short_Name_FR":"Albanie","Short_Name_ES":"Albania","Short_Name_RU":"Албания","Short_Name_AR":"ألبانيا","GlobalID":"cc9dafa7-c8e8-43ad-af39-0a527807376c"}},{"attributes":{"ADM0_NAME":"Algeria","DateOfReport":1584316800000,"cum_conf":60,"cum_death":4,"ID":40875,"CENTER_LON":2.63236595,"CENTER_LAT":28.16335741,"ADM0_VIZ_NAME":"Algeria","Short_Name_ZH":"阿尔及利亚","Short_Name_FR":"Algérie","Short_Name_ES":"Argelia","Short_Name_RU":"Алжир","Short_Name_AR":"الجزائر","GlobalID":"236a88fe-6b95-4c81-a089-2baad74a55ff"}},{"attributes":{"ADM0_NAME":"Andorra","DateOfReport":1584316800000,"cum_conf":14,"cum_death":0,"ID":40876,"CENTER_LON":1.57568833,"CENTER_LAT":42.54858297,"ADM0_VIZ_NAME":"Andorra","Short_Name_ZH":"安道尔","Short_Name_FR":"Andorre","Short_Name_ES":"Andorra","Short_Name_RU":"Андорра","Short_Name_AR":"أندورا","GlobalID":"246e5453-482c-4507-9166-968a1356068c"}},{"attributes":{"ADM0_NAME":"Antigua and Barbuda","DateOfReport":1584316800000,"cum_conf":1,"cum_death":0,"ID":40877,"CENTER_LON":-61.79112759,"CENTER_LAT":17.280137,"ADM0_VIZ_NAME":"Antigua and Barbuda","Short_Name_ZH":"安提瓜和巴布达","Short_Name_FR":"Antigua-et-Barbuda","Short_Name_ES":"Antigua y Barbuda","Short_Name_RU":"Антигуа и Барбуда","Short_Name_AR":"أنتيغوا وبربودا","GlobalID":"fc4632e9-6a25-4e8c-945e-817c569720b6"}},{"attributes":{"ADM0_NAME":"Argentina","DateOfReport":1584316800000,"cum_conf":65,"cum_death":2,"ID":40878,"CENTER_LON":-65.16748474,"CENTER_LAT":-35.37667253,"ADM0_VIZ_NAME":"Argentina","Short_Name_ZH":"阿根廷 ","Short_Name_FR":"Argentine","Short_Name_ES":"Argentina","Short_Name_RU":"Аргентина","Short_Name_AR":"الأرجنتين","GlobalID":"be7c9f31-2438-4e5a-92b5-3f3358b69c71"}},{"attributes":{"ADM0_NAME":"Armenia","DateOfReport":1584316800000,"cum_conf":52,"cum_death":0,"ID":40879,"CENTER_LON":44.94793424,"CENTER_LAT":40.28641688,"ADM0_VIZ_NAME":"Armenia","Short_Name_ZH":"亚美尼亚","Short_Name_FR":"Arménie","Short_Name_ES":"Armenia","Short_Name_RU":"Армения","Short_Name_AR":"أرمينيا","GlobalID":"1d90de2b-bf03-43fa-a003-8376f5addf43"}},{"attributes":{"ADM0_NAME":"Australia","DateOfReport":1584316800000,"cum_conf":375,"cum_death":5,"ID":40880,"CENTER_LON":134.49097595,"CENTER_LAT":-25.73326023,"ADM0_VIZ_NAME":"Australia","Short_Name_ZH":"澳大利亚","Short_Name_FR":"Australie","Short_Name_ES":"Australia","Short_Name_RU":"Австралия","Short_Name_AR":"أستراليا","GlobalID":"2429e030-623c-460a-bc5f-365324c4fadc"}},{"attributes":{"ADM0_NAME":"Austria","DateOfReport":1584316800000,"cum_conf":1132,"cum_death":3,"ID":40881,"CENTER_LON":14.13998831,"CENTER_LAT":47.59295768,"ADM0_VIZ_NAME":"Austria","Short_Name_ZH":"奥地利","Short_Name_FR":"Autriche","Short_Name_ES":"Austria","Short_Name_RU":"Австрия","Short_Name_AR":"النمسا","GlobalID":"8e4749da-1183-4dfe-948b-a360f92716c0"}},{"attributes":{"ADM0_NAME":"Azerbaijan","DateOfReport":1584316800000,"cum_conf":21,"cum_death":0,"ID":40882,"CENTER_LON":47.53232681,"CENTER_LAT":40.2922195,"ADM0_VIZ_NAME":"Azerbaijan","Short_Name_ZH":"阿塞拜疆","Short_Name_FR":"Azerbaïdjan","Short_Name_ES":"Azerbaiyán","Short_Name_RU":"Азербайджан","Short_Name_AR":"أذربيجان","GlobalID":"6f4139f4-1452-4006-b3b0-3b3dd8245eae"}},{"attributes":{"ADM0_NAME":"Bahrain","DateOfReport":1584316800000,"cum_conf":229,"cum_death":1,"ID":40883,"CENTER_LON":50.56248915,"CENTER_LAT":26.01947392,"ADM0_VIZ_NAME":"Bahrain","Short_Name_ZH":"巴林","Short_Name_FR":"Bahreïn","Short_Name_ES":"Bahrein","Short_Name_RU":"Бахрейн","Short_Name_AR":"البحرين","GlobalID":"1aba5e15-a000-428d-a051-fd2cc041ac09"}},{"attributes":{"ADM0_NAME":"Bangladesh","DateOfReport":1584316800000,"cum_conf":8,"cum_death":0,"ID":40884,"CENTER_LON":90.27092576,"CENTER_LAT":23.8330072,"ADM0_VIZ_NAME":"Bangladesh","Short_Name_ZH":"孟加拉国","Short_Name_FR":"Bangladesh","Short_Name_ES":"Bangladesh","Short_Name_RU":"Бангладеш","Short_Name_AR":"بنغلاديش","GlobalID":"e51103e4-1059-4df9-a5d0-a33b52066312"}},{"attributes":{"ADM0_NAME":"Belarus","DateOfReport":1584316800000,"cum_conf":36,"cum_death":0,"ID":40885,"CENTER_LON":28.04696448,"CENTER_LAT":53.54021951,"ADM0_VIZ_NAME":"Belarus","Short_Name_ZH":"白俄罗斯","Short_Name_FR":"Bélarus","Short_Name_ES":"Belarús","Short_Name_RU":"Беларусь","Short_Name_AR":"بيلاروس","GlobalID":"c33f4757-0936-4da4-835b-dc9bbd74bc8f"}},{"attributes":{"ADM0_NAME":"Belgium","DateOfReport":1584316800000,"cum_conf":1085,"cum_death":5,"ID":40886,"CENTER_LON":4.66434841,"CENTER_LAT":50.64295176,"ADM0_VIZ_NAME":"Belgium","Short_Name_ZH":"比利时","Short_Name_FR":"Belgique","Short_Name_ES":"Bélgica","Short_Name_RU":"Бельгия","Short_Name_AR":"بلجيكا","GlobalID":"d7f70480-3aa1-42c8-8908-1fc0f0af74d2"}},{"attributes":{"ADM0_NAME":"Bhutan","DateOfReport":1584316800000,"cum_conf":1,"cum_death":0,"ID":40887,"CENTER_LON":90.42943275,"CENTER_LAT":27.41546082,"ADM0_VIZ_NAME":"Bhutan","Short_Name_ZH":"不丹","Short_Name_FR":"Bhoutan","Short_Name_ES":"Bhután","Short_Name_RU":"Бутан","Short_Name_AR":"بوتان","GlobalID":"3c831f71-10e9-4104-8cf9-70893119991a"}},{"attributes":{"ADM0_NAME":"Bolivia (Plurinational State of)","DateOfReport":1584316800000,"cum_conf":11,"cum_death":0,"ID":40888,"CENTER_LON":-64.67054847,"CENTER_LAT":-16.71510989,"ADM0_VIZ_NAME":"Bolivia (Plurinational State of)","Short_Name_ZH":"玻利维亚（多民族国）","Short_Name_FR":"Bolivie (État plurinational de)","Short_Name_ES":"Bolivia (Estado Plurinacional de)  ","Short_Name_RU":"Боливия (Многонациональное Государство)","Short_Name_AR":"بوليفيا (دولة - المتعددة القوميات)","GlobalID":"976ea81f-4826-4bbf-90d4-a022d6d366d8"}},{"attributes":{"ADM0_NAME":"Bosnia and Herzegovina","DateOfReport":1584316800000,"cum_conf":19,"cum_death":0,"ID":40889,"CENTER_LON":17.78861095,"CENTER_LAT":44.16643966,"ADM0_VIZ_NAME":"Bosnia and Herzegovina","Short_Name_ZH":"波斯尼亚和黑塞哥维那","Short_Name_FR":"Bosnie-Herzégovine","Short_Name_ES":"Bosnia y Herzegovina","Short_Name_RU":"Босния и Герцеговина","Short_Name_AR":"البوسنة والهرسك","GlobalID":"3e05159c-84ac-42e8-9e37-8871fc44a5f4"}},{"attributes":{"ADM0_NAME":"Brazil","DateOfReport":1584316800000,"cum_conf":234,"cum_death":0,"ID":40890,"CENTER_LON":-53.08875436,"CENTER_LAT":-10.7722828,"ADM0_VIZ_NAME":"Brazil","Short_Name_ZH":"巴西","Short_Name_FR":"Brésil","Short_Name_ES":"Brasil","Short_Name_RU":"Бразилия","Short_Name_AR":"البرازيل","GlobalID":"41e365bc-754f-4c4b-8e31-45b1a4416029"}},{"attributes":{"ADM0_NAME":"Brunei Darussalam","DateOfReport":1584316800000,"cum_conf":50,"cum_death":0,"ID":40891,"CENTER_LON":114.76132088,"CENTER_LAT":4.52147838,"ADM0_VIZ_NAME":"Brunei Darussalam","Short_Name_ZH":"文莱达鲁萨兰国","Short_Name_FR":"Brunéi Darussalam","Short_Name_ES":"Brunei Darussalam","Short_Name_RU":"Бруней-Даруссалам ","Short_Name_AR":"بروني دار السلام","GlobalID":"bbd9c5e9-2669-4eb4-adbc-96059ac9fe01"}},{"attributes":{"ADM0_NAME":"Bulgaria","DateOfReport":1584316800000,"cum_conf":67,"cum_death":3,"ID":40892,"CENTER_LON":25.23475756,"CENTER_LAT":42.76032141,"ADM0_VIZ_NAME":"Bulgaria","Short_Name_ZH":"保加利亚","Short_Name_FR":"Bulgarie","Short_Name_ES":"Bulgaria","Short_Name_RU":"Болгария","Short_Name_AR":"بلغاريا","GlobalID":"ba068655-3094-4c66-9eab-6de5268160c7"}},{"attributes":{"ADM0_NAME":"Burkina Faso","DateOfReport":1584316800000,"cum_conf":15,"cum_death":0,"ID":40893,"CENTER_LON":-1.73983521,"CENTER_LAT":12.27793715,"ADM0_VIZ_NAME":"Burkina Faso","Short_Name_ZH":"布基纳法索","Short_Name_FR":"Burkina Faso","Short_Name_ES":"Burkina Faso","Short_Name_RU":"Буркина-Фасо","Short_Name_AR":"بوركينا فاسو","GlobalID":"10044e85-e1c8-4aca-a464-b30cca7f90ab"}},{"attributes":{"ADM0_NAME":"Cambodia","DateOfReport":1584316800000,"cum_conf":24,"cum_death":0,"ID":40894,"CENTER_LON":104.92123962,"CENTER_LAT":12.71402994,"ADM0_VIZ_NAME":"Cambodia","Short_Name_ZH":"柬埔寨","Short_Name_FR":"Cambodge","Short_Name_ES":"Camboya","Short_Name_RU":"Камбоджа","Short_Name_AR":"كمبوديا","GlobalID":"45d68569-8c32-45eb-9b1f-0bbfb543fbc7"}},{"attributes":{"ADM0_NAME":"Cameroon","DateOfReport":1584316800000,"cum_conf":5,"cum_death":0,"ID":40895,"CENTER_LON":12.7432535,"CENTER_LAT":5.68580436,"ADM0_VIZ_NAME":"Cameroon","Short_Name_ZH":"喀麦隆","Short_Name_FR":"Cameroun","Short_Name_ES":"Camerún","Short_Name_RU":"Камерун","Short_Name_AR":"الكاميرون","GlobalID":"296d91d6-7c72-4113-b29a-eb63ff0cf656"}},{"attributes":{"ADM0_NAME":"Canada","DateOfReport":1584316800000,"cum_conf":424,"cum_death":1,"ID":40896,"CENTER_LON":-98.26094698,"CENTER_LAT":61.3930667,"ADM0_VIZ_NAME":"Canada","Short_Name_ZH":"加拿大","Short_Name_FR":"Canada","Short_Name_ES":"Canadá","Short_Name_RU":"Канада","Short_Name_AR":"كندا","GlobalID":"bc70eaa5-13c2-4ed3-baf8-932592e91545"}},{"attributes":{"ADM0_NAME":"Cayman Islands","DateOfReport":1584316800000,"cum_conf":1,"cum_death":1,"ID":40897,"CENTER_LON":-80.82909683,"CENTER_LAT":19.431525,"ADM0_VIZ_NAME":"Cayman Islands","Short_Name_ZH":null,"Short_Name_FR":null,"Short_Name_ES":null,"Short_Name_RU":null,"Short_Name_AR":null,"GlobalID":"8edfd7ea-b892-401d-882a-a4ef0faddaba"}},{"attributes":{"ADM0_NAME":"Central African Republic","DateOfReport":1584316800000,"cum_conf":1,"cum_death":0,"ID":40898,"CENTER_LON":20.48278081,"CENTER_LAT":6.57145342,"ADM0_VIZ_NAME":"Central African Republic","Short_Name_ZH":"中非共和国","Short_Name_FR":"République centrafricaine","Short_Name_ES":"República Centroafricana","Short_Name_RU":"Центральноафриканская Республика","Short_Name_AR":"جمهورية أفريقيا الوسطى","GlobalID":"3934049e-5acb-4e36-8f8e-eb141f82e48a"}},{"attributes":{"ADM0_NAME":"Chile","DateOfReport":1584316800000,"cum_conf":156,"cum_death":0,"ID":40899,"CENTER_LON":-71.38009385,"CENTER_LAT":-37.86811922,"ADM0_VIZ_NAME":"Chile","Short_Name_ZH":"智利","Short_Name_FR":"Chili","Short_Name_ES":"Chile","Short_Name_RU":"Чили","Short_Name_AR":"شيلي","GlobalID":"a0d7e8fd-2283-40ac-a919-e6f4eff30b81"}},{"attributes":{"ADM0_NAME":"Colombia","DateOfReport":1584316800000,"cum_conf":45,"cum_death":0,"ID":40900,"CENTER_LON":-73.07576335,"CENTER_LAT":3.90037401,"ADM0_VIZ_NAME":"Colombia","Short_Name_ZH":"哥伦比亚","Short_Name_FR":"Colombie","Short_Name_ES":"Colombia","Short_Name_RU":"Колумбия","Short_Name_AR":"كولومبيا","GlobalID":"186b0144-4ff0-4cef-b5fa-cf7d66fcb9b3"}},{"attributes":{"ADM0_NAME":"Congo","DateOfReport":1584316800000,"cum_conf":1,"cum_death":0,"ID":40901,"CENTER_LON":15.22427459,"CENTER_LAT":-0.84006603,"ADM0_VIZ_NAME":"Congo","Short_Name_ZH":"刚果","Short_Name_FR":"Congo","Short_Name_ES":"Congo (el)","Short_Name_RU":"Конго","Short_Name_AR":"الكونغو","GlobalID":"ce8db090-6ed3-4e99-85f7-b987116ff480"}},{"attributes":{"ADM0_NAME":"Costa Rica","DateOfReport":1584316800000,"cum_conf":41,"cum_death":0,"ID":40902,"CENTER_LON":-84.18903867,"CENTER_LAT":9.97052135,"ADM0_VIZ_NAME":"Costa Rica","Short_Name_ZH":"哥斯达黎加","Short_Name_FR":"Costa Rica","Short_Name_ES":"Costa Rica","Short_Name_RU":"Коста-Рика","Short_Name_AR":"كوستاريكا","GlobalID":"c06b7147-4c48-4575-887d-710d9357a57a"}},{"attributes":{"ADM0_NAME":"Croatia","DateOfReport":1584316800000,"cum_conf":49,"cum_death":0,"ID":40903,"CENTER_LON":16.40934249,"CENTER_LAT":45.04363696,"ADM0_VIZ_NAME":"Croatia","Short_Name_ZH":"克罗地亚","Short_Name_FR":"Croatie","Short_Name_ES":"Croacia","Short_Name_RU":"Хорватия","Short_Name_AR":"كرواتيا","GlobalID":"06d920d0-c745-49de-a65c-2bd6c4ce1c4f"}},{"attributes":{"ADM0_NAME":"Cuba","DateOfReport":1584316800000,"cum_conf":5,"cum_death":0,"ID":40904,"CENTER_LON":-79.0381998,"CENTER_LAT":21.62142096,"ADM0_VIZ_NAME":"Cuba","Short_Name_ZH":"古巴","Short_Name_FR":"Cuba","Short_Name_ES":"Cuba","Short_Name_RU":"Куба","Short_Name_AR":"كوبا","GlobalID":"0352219b-47aa-4f0d-a6f5-c2802eb734a9"}},{"attributes":{"ADM0_NAME":"Curacao","DateOfReport":1584316800000,"cum_conf":3,"cum_death":0,"ID":40905,"CENTER_LON":-68.96749055,"CENTER_LAT":12.18779752,"ADM0_VIZ_NAME":"Curacao","Short_Name_ZH":null,"Short_Name_FR":null,"Short_Name_ES":null,"Short_Name_RU":null,"Short_Name_AR":null,"GlobalID":"dc6c6a36-d1f6-4549-9e87-5eb9538b2d07"}},{"attributes":{"ADM0_NAME":"Cyprus","DateOfReport":1584316800000,"cum_conf":33,"cum_death":0,"ID":40906,"CENTER_LON":33.21863708,"CENTER_LAT":35.04299175,"ADM0_VIZ_NAME":"Cyprus","Short_Name_ZH":"塞浦路斯","Short_Name_FR":"Chypre","Short_Name_ES":"Chipre","Short_Name_RU":"Кипр","Short_Name_AR":"قبرص","GlobalID":"71c1db24-ec99-4ef1-a427-ed87b9d2f8c5"}},{"attributes":{"ADM0_NAME":"Czechia","DateOfReport":1584316800000,"cum_conf":383,"cum_death":0,"ID":40907,"CENTER_LON":15.33833995,"CENTER_LAT":49.74303614,"ADM0_VIZ_NAME":"Czechia","Short_Name_ZH":"捷克","Short_Name_FR":"Tchéquie","Short_Name_ES":"Chequia","Short_Name_RU":"Чехия","Short_Name_AR":"تشيكيا","GlobalID":"1928ffdc-8f64-4781-8364-8c9bba1232ea"}},{"attributes":{"ADM0_NAME":"Democratic Republic of the Congo","DateOfReport":1584316800000,"cum_conf":3,"cum_death":0,"ID":40908,"CENTER_LON":23.65431545,"CENTER_LAT":-2.87622576,"ADM0_VIZ_NAME":"Democratic Republic of the Congo","Short_Name_ZH":"刚果民主共和国","Short_Name_FR":"République démocratique du Congo","Short_Name_ES":"República Democrática del Congo","Short_Name_RU":"Демократическая Республика Конго","Short_Name_AR":"جمهورية الكونغو الديمقراطية ","GlobalID":"3a868091-98cf-4078-8b6a-5d72def761fc"}},{"attributes":{"ADM0_NAME":"Denmark","DateOfReport":1584316800000,"cum_conf":960,"cum_death":4,"ID":40909,"CENTER_LON":10.05082082,"CENTER_LAT":55.9623328,"ADM0_VIZ_NAME":"Denmark","Short_Name_ZH":"丹麦","Short_Name_FR":"Danemark","Short_Name_ES":"Dinamarca","Short_Name_RU":"Дания","Short_Name_AR":"الدانمرك","GlobalID":"a2c7e6e4-e07d-4faa-ac7f-e7a7a8ef6b2a"}},{"attributes":{"ADM0_NAME":"Dominican Republic","DateOfReport":1584316800000,"cum_conf":21,"cum_death":1,"ID":40910,"CENTER_LON":-70.48543447,"CENTER_LAT":18.89309386,"ADM0_VIZ_NAME":"Dominican Republic","Short_Name_ZH":"多米尼加 ","Short_Name_FR":"République dominicaine","Short_Name_ES":"República Dominicana","Short_Name_RU":"Доминиканская Республика","Short_Name_AR":"الجمهورية الدومينيكية","GlobalID":"2e54b99d-5666-4db3-8000-ac91fe5cf96d"}},{"attributes":{"ADM0_NAME":"Ecuador","DateOfReport":1584316800000,"cum_conf":58,"cum_death":2,"ID":40911,"CENTER_LON":-78.78096177,"CENTER_LAT":-1.42528337,"ADM0_VIZ_NAME":"Ecuador","Short_Name_ZH":"厄瓜多尔","Short_Name_FR":"Équateur","Short_Name_ES":"Ecuador","Short_Name_RU":"Эквадор","Short_Name_AR":"إكوادور","GlobalID":"becc5e56-7e8d-4f06-b6a5-3440aa0d37a1"}},{"attributes":{"ADM0_NAME":"Egypt","DateOfReport":1584316800000,"cum_conf":166,"cum_death":4,"ID":40912,"CENTER_LON":29.78210708,"CENTER_LAT":26.5565646,"ADM0_VIZ_NAME":"Egypt","Short_Name_ZH":"埃及","Short_Name_FR":"Égypte","Short_Name_ES":"Egipto","Short_Name_RU":"Египет","Short_Name_AR":"مصر","GlobalID":"af80d129-49b6-4a71-90fa-04c6209ad35d"}},{"attributes":{"ADM0_NAME":"Equatorial Guinea","DateOfReport":1584316800000,"cum_conf":1,"cum_death":0,"ID":40913,"CENTER_LON":10.33849628,"CENTER_LAT":1.7101686,"ADM0_VIZ_NAME":"Equatorial Guinea","Short_Name_ZH":"赤道几内亚","Short_Name_FR":"Guinée équatoriale","Short_Name_ES":"Guinea Ecuatorial","Short_Name_RU":"Экваториальная Гвинея","Short_Name_AR":"غينيا الاستوائية","GlobalID":"aa3c0425-fcae-4b2d-ad31-47e0e763a83d"}},{"attributes":{"ADM0_NAME":"Estonia","DateOfReport":1584316800000,"cum_conf":205,"cum_death":0,"ID":40914,"CENTER_LON":25.5257709,"CENTER_LAT":58.67400787,"ADM0_VIZ_NAME":"Estonia","Short_Name_ZH":"爱沙尼亚","Short_Name_FR":"Estonie","Short_Name_ES":"Estonia","Short_Name_RU":"Эстония","Short_Name_AR":"إستونيا","GlobalID":"db556503-b8bb-4ea1-912a-ef1fea413bf2"}},{"attributes":{"ADM0_NAME":"Eswatini","DateOfReport":1584316800000,"cum_conf":1,"cum_death":0,"ID":40915,"CENTER_LON":31.4971888,"CENTER_LAT":-26.56211674,"ADM0_VIZ_NAME":"Eswatini","Short_Name_ZH":"斯威士兰","Short_Name_FR":"Eswatini","Short_Name_ES":"Eswatini","Short_Name_RU":"Эсватини","Short_Name_AR":"إسواتيني","GlobalID":"5ea5f8f9-0931-40c1-b0d3-cc38ac2dc337"}},{"attributes":{"ADM0_NAME":"Ethiopia","DateOfReport":1584316800000,"cum_conf":5,"cum_death":0,"ID":40916,"CENTER_LON":39.61601894,"CENTER_LAT":8.62613927,"ADM0_VIZ_NAME":"Ethiopia","Short_Name_ZH":"埃塞俄比亚","Short_Name_FR":"Éthiopie","Short_Name_ES":"Etiopía","Short_Name_RU":"Эфиопия","Short_Name_AR":"إثيوبيا","GlobalID":"2acaa71a-4fe3-4212-a231-68c9e891bf81"}},{"attributes":{"ADM0_NAME":"Faroe Islands","DateOfReport":1584316800000,"cum_conf":47,"cum_death":0,"ID":40917,"CENTER_LON":-6.86363602,"CENTER_LAT":62.050314,"ADM0_VIZ_NAME":"Faroe Islands","Short_Name_ZH":"Faroe Islands","Short_Name_FR":null,"Short_Name_ES":null,"Short_Name_RU":null,"Short_Name_AR":null,"GlobalID":"3334f73c-d20d-4590-8066-1f84c232d63f"}},{"attributes":{"ADM0_NAME":"Finland","DateOfReport":1584316800000,"cum_conf":272,"cum_death":0,"ID":40918,"CENTER_LON":26.2588423,"CENTER_LAT":64.49433129,"ADM0_VIZ_NAME":"Finland","Short_Name_ZH":"芬兰","Short_Name_FR":"Finlande","Short_Name_ES":"Finlandia","Short_Name_RU":"Финляндия","Short_Name_AR":"فنلندا","GlobalID":"2e80478e-ade0-40fb-8571-2cb67bf59fc0"}},{"attributes":{"ADM0_NAME":"France","DateOfReport":1584316800000,"cum_conf":6573,"cum_death":148,"ID":40919,"CENTER_LON":2.55042646,"CENTER_LAT":46.56487403,"ADM0_VIZ_NAME":"France","Short_Name_ZH":"法国","Short_Name_FR":"France","Short_Name_ES":"Francia","Short_Name_RU":"Франция","Short_Name_AR":"فرنسا","GlobalID":"8fdd0e33-9050-413a-8924-65dfce1c8a95"}},{"attributes":{"ADM0_NAME":"French Guiana","DateOfReport":1584316800000,"cum_conf":7,"cum_death":0,"ID":40920,"CENTER_LON":-53.24126696,"CENTER_LAT":3.9243882,"ADM0_VIZ_NAME":"French Guiana","Short_Name_ZH":"French Guiana","Short_Name_FR":null,"Short_Name_ES":null,"Short_Name_RU":null,"Short_Name_AR":null,"GlobalID":"1e43a387-ca13-4b3b-8397-e95641dd276e"}},{"attributes":{"ADM0_NAME":"French Polynesia","DateOfReport":1584316800000,"cum_conf":3,"cum_death":0,"ID":40921,"CENTER_LON":-149.568,"CENTER_LAT":-17.532,"ADM0_VIZ_NAME":"French Polynesia","Short_Name_ZH":null,"Short_Name_FR":null,"Short_Name_ES":null,"Short_Name_RU":null,"Short_Name_AR":null,"GlobalID":"3dad0a40-4e6c-4376-a665-1f301d26b2d1"}},{"attributes":{"ADM0_NAME":"Gabon","DateOfReport":1584316800000,"cum_conf":1,"cum_death":0,"ID":40922,"CENTER_LON":11.79715762,"CENTER_LAT":-0.59067797,"ADM0_VIZ_NAME":"Gabon","Short_Name_ZH":"加蓬","Short_Name_FR":"Gabon","Short_Name_ES":"Gabón","Short_Name_RU":"Габон","Short_Name_AR":"غابون","GlobalID":"6b645254-c1de-43cd-9e83-01885afcbb3c"}},{"attributes":{"ADM0_NAME":"Georgia","DateOfReport":1584316800000,"cum_conf":33,"cum_death":0,"ID":40923,"CENTER_LON":43.51757115,"CENTER_LAT":42.17632583,"ADM0_VIZ_NAME":"Georgia","Short_Name_ZH":"格鲁吉亚","Short_Name_FR":"Géorgie","Short_Name_ES":"Georgia","Short_Name_RU":"Грузия","Short_Name_AR":"جورجيا","GlobalID":"fe77e1e9-59c4-4190-8abb-761e53a10f7a"}},{"attributes":{"ADM0_NAME":"Germany","DateOfReport":1584316800000,"cum_conf":6012,"cum_death":13,"ID":40924,"CENTER_LON":10.39232967,"CENTER_LAT":51.11015396,"ADM0_VIZ_NAME":"Germany","Short_Name_ZH":"德国","Short_Name_FR":"Allemagne","Short_Name_ES":"Alemania","Short_Name_RU":"Германия","Short_Name_AR":"ألمانيا","GlobalID":"08c8abfc-090a-4b43-9ca0-efe0c75a1d7e"}},{"attributes":{"ADM0_NAME":"Ghana","DateOfReport":1584316800000,"cum_conf":6,"cum_death":0,"ID":40925,"CENTER_LON":-1.20704619,"CENTER_LAT":7.95964382,"ADM0_VIZ_NAME":"Ghana","Short_Name_ZH":"加纳","Short_Name_FR":"Ghana","Short_Name_ES":"Ghana","Short_Name_RU":"Гана","Short_Name_AR":"غانا","GlobalID":"5215cef2-e155-4dda-937a-d22b86425857"}},{"attributes":{"ADM0_NAME":"Gibraltar","DateOfReport":1584316800000,"cum_conf":3,"cum_death":0,"ID":40926,"CENTER_LON":-5.34488893,"CENTER_LAT":36.1381932,"ADM0_VIZ_NAME":"Gibraltar","Short_Name_ZH":"Gibraltar","Short_Name_FR":null,"Short_Name_ES":null,"Short_Name_RU":null,"Short_Name_AR":null,"GlobalID":"1f645b5d-aee3-44d3-8a01-8ffb64e057dd"}},{"attributes":{"ADM0_NAME":"Greece","DateOfReport":1584316800000,"cum_conf":331,"cum_death":4,"ID":40927,"CENTER_LON":22.9879848,"CENTER_LAT":39.04452874,"ADM0_VIZ_NAME":"Greece","Short_Name_ZH":"希腊","Short_Name_FR":"Grèce","Short_Name_ES":"Grecia","Short_Name_RU":"Греция","Short_Name_AR":"اليونان","GlobalID":"83c9bda6-c95e-499c-b82c-2acf4d4916aa"}},{"attributes":{"ADM0_NAME":"Guadeloupe","DateOfReport":1584316800000,"cum_conf":18,"cum_death":0,"ID":40928,"CENTER_LON":-61.53039242,"CENTER_LAT":16.20126357,"ADM0_VIZ_NAME":"Guadeloupe","Short_Name_ZH":null,"Short_Name_FR":null,"Short_Name_ES":null,"Short_Name_RU":null,"Short_Name_AR":null,"GlobalID":"c81609fb-5939-4817-96b1-2187b7775205"}},{"attributes":{"ADM0_NAME":"Guernsey","DateOfReport":1584316800000,"cum_conf":1,"cum_death":0,"ID":40929,"CENTER_LON":-2.57582282,"CENTER_LAT":49.4590463,"ADM0_VIZ_NAME":"Guernsey","Short_Name_ZH":"Guernsey","Short_Name_FR":null,"Short_Name_ES":null,"Short_Name_RU":null,"Short_Name_AR":null,"GlobalID":"e1813ee9-b5b0-4a2a-9882-2fca2a388e24"}},{"attributes":{"ADM0_NAME":"Guinea","DateOfReport":1584316800000,"cum_conf":1,"cum_death":0,"ID":40930,"CENTER_LON":-10.94182542,"CENTER_LAT":10.43854094,"ADM0_VIZ_NAME":"Guinea","Short_Name_ZH":"几内亚","Short_Name_FR":"Guinée","Short_Name_ES":"Guinea","Short_Name_RU":"Гвинея","Short_Name_AR":"غينيا","GlobalID":"ad8b1551-0184-42a9-914b-e5e9a882fa52"}},{"attributes":{"ADM0_NAME":"Guyana","DateOfReport":1584316800000,"cum_conf":4,"cum_death":1,"ID":40931,"CENTER_LON":-58.97416349,"CENTER_LAT":4.79237827,"ADM0_VIZ_NAME":"Guyana","Short_Name_ZH":"圭亚那","Short_Name_FR":"Guyana","Short_Name_ES":"Guyana","Short_Name_RU":"Гайана","Short_Name_AR":"غيانا","GlobalID":"a58759ca-e61e-4c46-be5c-a698b7e876ba"}},{"attributes":{"ADM0_NAME":"Holy See","DateOfReport":1584316800000,"cum_conf":1,"cum_death":0,"ID":40932,"CENTER_LON":12.48571114,"CENTER_LAT":41.89324195,"ADM0_VIZ_NAME":"Holy See","Short_Name_ZH":"Holy See","Short_Name_FR":null,"Short_Name_ES":null,"Short_Name_RU":null,"Short_Name_AR":null,"GlobalID":"644ff2f9-0b52-4599-8576-1d4c28cb2ca6"}},{"attributes":{"ADM0_NAME":"Honduras","DateOfReport":1584316800000,"cum_conf":8,"cum_death":0,"ID":40933,"CENTER_LON":-86.61965899,"CENTER_LAT":14.81934813,"ADM0_VIZ_NAME":"Honduras","Short_Name_ZH":"洪都拉斯","Short_Name_FR":"Honduras","Short_Name_ES":"Honduras","Short_Name_RU":"Гондурас","Short_Name_AR":"هندوراس","GlobalID":"1820ff78-6aa5-44a3-b3be-3efeb9473d06"}},{"attributes":{"ADM0_NAME":"Hungary","DateOfReport":1584316800000,"cum_conf":50,"cum_death":1,"ID":40934,"CENTER_LON":19.41342813,"CENTER_LAT":47.16647906,"ADM0_VIZ_NAME":"Hungary","Short_Name_ZH":"匈牙利","Short_Name_FR":"Hongrie","Short_Name_ES":"Hungría","Short_Name_RU":"Венгрия","Short_Name_AR":"هنغاريا","GlobalID":"b9bebb21-5def-455c-8184-a71655402254"}},{"attributes":{"ADM0_NAME":"Iceland","DateOfReport":1584316800000,"cum_conf":180,"cum_death":0,"ID":40935,"CENTER_LON":-18.6057026,"CENTER_LAT":64.99764998,"ADM0_VIZ_NAME":"Iceland","Short_Name_ZH":"冰岛","Short_Name_FR":"Islande","Short_Name_ES":"Islandia","Short_Name_RU":"Исландия","Short_Name_AR":"آيسلندا","GlobalID":"e7edacbf-f49f-42ab-b581-14d754b10b11"}},{"attributes":{"ADM0_NAME":"India","DateOfReport":1584316800000,"cum_conf":137,"cum_death":3,"ID":40936,"CENTER_LON":79.6188183,"CENTER_LAT":22.88132057,"ADM0_VIZ_NAME":"India","Short_Name_ZH":"印度","Short_Name_FR":"Inde","Short_Name_ES":"India","Short_Name_RU":"Индия","Short_Name_AR":"الهند","GlobalID":"99cb1217-b7bf-4b62-968a-620d81495ce8"}},{"attributes":{"ADM0_NAME":"Indonesia","DateOfReport":1584316800000,"cum_conf":172,"cum_death":5,"ID":40937,"CENTER_LON":117.31101692,"CENTER_LAT":-2.22903453,"ADM0_VIZ_NAME":"Indonesia","Short_Name_ZH":"印度尼西亚","Short_Name_FR":"Indonésie","Short_Name_ES":"Indonesia","Short_Name_RU":"Индонезия","Short_Name_AR":"إندونيسيا","GlobalID":"527d850c-1148-4925-8b05-b6de676061ff"}},{"attributes":{"ADM0_NAME":"International conveyance (Diamond Princess)","DateOfReport":1584316800000,"cum_conf":712,"cum_death":7,"ID":40938,"CENTER_LON":null,"CENTER_LAT":null,"ADM0_VIZ_NAME":"International conveyance (Diamond Princess)","Short_Name_ZH":"International conveyance (Diamond Princess)","Short_Name_FR":null,"Short_Name_ES":null,"Short_Name_RU":null,"Short_Name_AR":null,"GlobalID":"a01cce9d-16e2-4546-9d71-3852451d2933"}},{"attributes":{"ADM0_NAME":"Iran (Islamic Republic of)","DateOfReport":1584316800000,"cum_conf":14991,"cum_death":853,"ID":40939,"CENTER_LON":54.30141376,"CENTER_LAT":32.56479959,"ADM0_VIZ_NAME":"Iran (Islamic Republic of)","Short_Name_ZH":"伊朗（伊斯兰共和国）","Short_Name_FR":"Iran (République islamique d')","Short_Name_ES":"Irán (República Islámica del)","Short_Name_RU":"Иран (Исламская Республика)","Short_Name_AR":"إيران (جمهورية - الإسلامية)","GlobalID":"9b8bf607-18da-4b9e-9e63-7159338cc9d9"}},{"attributes":{"ADM0_NAME":"Iraq","DateOfReport":1584316800000,"cum_conf":124,"cum_death":9,"ID":40940,"CENTER_LON":43.77224552,"CENTER_LAT":33.04800654,"ADM0_VIZ_NAME":"Iraq","Short_Name_ZH":"伊拉克","Short_Name_FR":"Iraq","Short_Name_ES":"Iraq","Short_Name_RU":"Ирак","Short_Name_AR":"العراق","GlobalID":"464eb3f5-612e-4ccc-9785-750f477916b5"}},{"attributes":{"ADM0_NAME":"Ireland","DateOfReport":1584316800000,"cum_conf":223,"cum_death":2,"ID":40941,"CENTER_LON":-8.1515763,"CENTER_LAT":53.17708682,"ADM0_VIZ_NAME":"Ireland","Short_Name_ZH":"爱尔兰","Short_Name_FR":"Irlande","Short_Name_ES":"Irlanda","Short_Name_RU":"Ирландия","Short_Name_AR":"آيرلندا","GlobalID":"17e6c717-667c-448f-8ad1-82098bf5cb38"}},{"attributes":{"ADM0_NAME":"Israel","DateOfReport":1584316800000,"cum_conf":304,"cum_death":0,"ID":40942,"CENTER_LON":34.96598271,"CENTER_LAT":31.35805652,"ADM0_VIZ_NAME":"Israel","Short_Name_ZH":"以色列","Short_Name_FR":"Israël","Short_Name_ES":"Israel","Short_Name_RU":"Израиль","Short_Name_AR":"إسرائيل","GlobalID":"904f2320-0685-4a55-bef0-e81bf1f508f2"}},{"attributes":{"ADM0_NAME":"Italy","DateOfReport":1584316800000,"cum_conf":27980,"cum_death":2158,"ID":40943,"CENTER_LON":12.07165559,"CENTER_LAT":42.79119167,"ADM0_VIZ_NAME":"Italy","Short_Name_ZH":"意大利","Short_Name_FR":"Italie","Short_Name_ES":"Italia","Short_Name_RU":"Италия","Short_Name_AR":"إيطاليا","GlobalID":"a06fdf55-0971-4d6d-88f6-32ad046e7de9"}},{"attributes":{"ADM0_NAME":"Jamaica","DateOfReport":1584316800000,"cum_conf":10,"cum_death":0,"ID":40944,"CENTER_LON":-77.31975081,"CENTER_LAT":18.15133064,"ADM0_VIZ_NAME":"Jamaica","Short_Name_ZH":"牙买加","Short_Name_FR":"Jamaïque","Short_Name_ES":"Jamaica","Short_Name_RU":"Ямайка","Short_Name_AR":"جامايكا","GlobalID":"daf052db-dfdb-4f96-b4d6-a0515f7acae9"}},{"attributes":{"ADM0_NAME":"Japan","DateOfReport":1584316800000,"cum_conf":829,"cum_death":28,"ID":40945,"CENTER_LON":137.97387026,"CENTER_LAT":37.53982621,"ADM0_VIZ_NAME":"Japan","Short_Name_ZH":"日本","Short_Name_FR":"Japon","Short_Name_ES":"Japón","Short_Name_RU":"Япония","Short_Name_AR":"اليابان","GlobalID":"8ae29799-1ba2-4035-9d6e-25c78330eab4"}},{"attributes":{"ADM0_NAME":"Jersey","DateOfReport":1584316800000,"cum_conf":2,"cum_death":0,"ID":40946,"CENTER_LON":-2.12891773,"CENTER_LAT":49.21949816,"ADM0_VIZ_NAME":"Jersey","Short_Name_ZH":null,"Short_Name_FR":null,"Short_Name_ES":null,"Short_Name_RU":null,"Short_Name_AR":null,"GlobalID":"1faa1800-a616-4503-b4dc-626220d21d5f"}},{"attributes":{"ADM0_NAME":"Jordan","DateOfReport":1584316800000,"cum_conf":6,"cum_death":0,"ID":40947,"CENTER_LON":36.78694114,"CENTER_LAT":31.25338179,"ADM0_VIZ_NAME":"Jordan","Short_Name_ZH":"约旦","Short_Name_FR":"Jordanie","Short_Name_ES":"Jordania","Short_Name_RU":"Иордания","Short_Name_AR":"الأردن","GlobalID":"86e52033-9702-43e4-85ae-043f6362b0ef"}},{"attributes":{"ADM0_NAME":"Kazakhstan","DateOfReport":1584316800000,"cum_conf":6,"cum_death":0,"ID":40948,"CENTER_LON":67.30130018,"CENTER_LAT":48.1600427,"ADM0_VIZ_NAME":"Kazakhstan","Short_Name_ZH":"哈萨克斯坦","Short_Name_FR":"Kazakhstan","Short_Name_ES":"Kazajstán","Short_Name_RU":"Казахстан","Short_Name_AR":"كازاخستان","GlobalID":"fa26dec5-ad2e-4ce4-8811-f040a917f650"}},{"attributes":{"ADM0_NAME":"Kenya","DateOfReport":1584316800000,"cum_conf":3,"cum_death":0,"ID":40949,"CENTER_LON":37.85786442,"CENTER_LAT":0.52978018,"ADM0_VIZ_NAME":"Kenya","Short_Name_ZH":"肯尼亚","Short_Name_FR":"Kenya","Short_Name_ES":"Kenya","Short_Name_RU":"Кения","Short_Name_AR":"كينيا","GlobalID":"53ce0bab-8c4f-4ed4-a21d-84fe391cf3cc"}},{"attributes":{"ADM0_NAME":"Kuwait","DateOfReport":1584316800000,"cum_conf":130,"cum_death":0,"ID":40950,"CENTER_LON":47.59355128,"CENTER_LAT":29.34250906,"ADM0_VIZ_NAME":"Kuwait","Short_Name_ZH":"科威特","Short_Name_FR":"Koweït","Short_Name_ES":"Kuwait","Short_Name_RU":"Кувейт","Short_Name_AR":"الكويت","GlobalID":"be8ae0a5-2142-430a-936a-5db85ffd814d"}},{"attributes":{"ADM0_NAME":"Latvia","DateOfReport":1584316800000,"cum_conf":36,"cum_death":0,"ID":40951,"CENTER_LON":24.92915332,"CENTER_LAT":56.85766939,"ADM0_VIZ_NAME":"Latvia","Short_Name_ZH":"拉脱维亚","Short_Name_FR":"Lettonie","Short_Name_ES":"Letonia","Short_Name_RU":"Латвия","Short_Name_AR":"لاتفيا","GlobalID":"ecb9649f-30d7-4a19-b85e-838a6cdbf010"}},{"attributes":{"ADM0_NAME":"Lebanon","DateOfReport":1584316800000,"cum_conf":109,"cum_death":3,"ID":40952,"CENTER_LON":35.88806123,"CENTER_LAT":33.92039304,"ADM0_VIZ_NAME":"Lebanon","Short_Name_ZH":"黎巴嫩","Short_Name_FR":"Liban","Short_Name_ES":"Líbano","Short_Name_RU":"Ливан","Short_Name_AR":"لبنان","GlobalID":"3fe53c9d-9867-4e2e-91e3-b186f13a5027"}},{"attributes":{"ADM0_NAME":"Liechtenstein","DateOfReport":1584316800000,"cum_conf":7,"cum_death":0,"ID":40953,"CENTER_LON":9.55526493,"CENTER_LAT":47.15259548,"ADM0_VIZ_NAME":"Liechtenstein","Short_Name_ZH":"Liechtenstein","Short_Name_FR":null,"Short_Name_ES":null,"Short_Name_RU":null,"Short_Name_AR":null,"GlobalID":"7dc4bafe-be0b-42a7-8a6f-7d6e74e160fb"}},{"attributes":{"ADM0_NAME":"Lithuania","DateOfReport":1584316800000,"cum_conf":17,"cum_death":0,"ID":40954,"CENTER_LON":23.89683075,"CENTER_LAT":55.33585013,"ADM0_VIZ_NAME":"Lithuania","Short_Name_ZH":"立陶宛","Short_Name_FR":"Lituanie","Short_Name_ES":"Lituania","Short_Name_RU":"Литва","Short_Name_AR":"ليتوانيا","GlobalID":"178092c1-477e-45a9-aca6-9eb54d01d585"}},{"attributes":{"ADM0_NAME":"Luxembourg","DateOfReport":1584316800000,"cum_conf":81,"cum_death":1,"ID":40955,"CENTER_LON":6.08754416,"CENTER_LAT":49.77096396,"ADM0_VIZ_NAME":"Luxembourg","Short_Name_ZH":"卢森堡","Short_Name_FR":"Luxembourg","Short_Name_ES":"Luxemburgo","Short_Name_RU":"Люксембург","Short_Name_AR":"لكسمبرغ","GlobalID":"82aa5a5c-f48b-410e-982c-1b12fa55cc75"}},{"attributes":{"ADM0_NAME":"Malaysia","DateOfReport":1584316800000,"cum_conf":553,"cum_death":0,"ID":40956,"CENTER_LON":109.7115743,"CENTER_LAT":3.79382045,"ADM0_VIZ_NAME":"Malaysia","Short_Name_ZH":"马来西亚","Short_Name_FR":"Malaisie","Short_Name_ES":"Malasia","Short_Name_RU":"Малайзия","Short_Name_AR":"ماليزيا","GlobalID":"8163a9f5-b564-4311-9a61-0323715385df"}},{"attributes":{"ADM0_NAME":"Maldives","DateOfReport":1584316800000,"cum_conf":13,"cum_death":0,"ID":40957,"CENTER_LON":73.25178478,"CENTER_LAT":3.37481932,"ADM0_VIZ_NAME":"Maldives","Short_Name_ZH":"马尔代夫","Short_Name_FR":"Maldives","Short_Name_ES":"Maldivas","Short_Name_RU":"Мальдивские Острова","Short_Name_AR":"ملديف","GlobalID":"4bd5fa56-d9bb-446d-9122-514a6b1127c4"}},{"attributes":{"ADM0_NAME":"Malta","DateOfReport":1584316800000,"cum_conf":30,"cum_death":0,"ID":40958,"CENTER_LON":14.40457358,"CENTER_LAT":35.92036651,"ADM0_VIZ_NAME":"Malta","Short_Name_ZH":"马耳他","Short_Name_FR":"Malte","Short_Name_ES":"Malta","Short_Name_RU":"Мальта","Short_Name_AR":"مالطة","GlobalID":"05a26792-4b28-4293-acd2-1e725bb77365"}},{"attributes":{"ADM0_NAME":"Martinique","DateOfReport":1584316800000,"cum_conf":16,"cum_death":0,"ID":40959,"CENTER_LON":-61.02147382,"CENTER_LAT":14.65277419,"ADM0_VIZ_NAME":"Martinique","Short_Name_ZH":"Martinique","Short_Name_FR":null,"Short_Name_ES":null,"Short_Name_RU":null,"Short_Name_AR":null,"GlobalID":"36d839c0-e124-4248-884f-d038512660b9"}},{"attributes":{"ADM0_NAME":"Mauritania","DateOfReport":1584316800000,"cum_conf":1,"cum_death":0,"ID":40960,"CENTER_LON":-10.33226041,"CENTER_LAT":20.25990361,"ADM0_VIZ_NAME":"Mauritania","Short_Name_ZH":"毛里塔尼亚","Short_Name_FR":"Mauritanie","Short_Name_ES":"Mauritania","Short_Name_RU":"Мавритания","Short_Name_AR":"موريتانيا","GlobalID":"06c8a78b-e2cf-4488-8c8f-862166ca1510"}},{"attributes":{"ADM0_NAME":"Mayotte","DateOfReport":1584316800000,"cum_conf":1,"cum_death":0,"ID":40961,"CENTER_LON":45.13926174,"CENTER_LAT":-12.81835006,"ADM0_VIZ_NAME":"Mayotte","Short_Name_ZH":null,"Short_Name_FR":null,"Short_Name_ES":null,"Short_Name_RU":null,"Short_Name_AR":null,"GlobalID":"e89a9a90-1298-4ebd-869c-c4bd9c03c9ad"}},{"attributes":{"ADM0_NAME":"Mexico","DateOfReport":1584316800000,"cum_conf":53,"cum_death":0,"ID":40962,"CENTER_LON":-102.53499093,"CENTER_LAT":23.95092841,"ADM0_VIZ_NAME":"Mexico","Short_Name_ZH":"墨西哥","Short_Name_FR":"Mexique","Short_Name_ES":"México","Short_Name_RU":"Мексика","Short_Name_AR":"المكسيك","GlobalID":"d29a23c1-9a76-4486-b197-264357a5da77"}},{"attributes":{"ADM0_NAME":"Monaco","DateOfReport":1584316800000,"cum_conf":9,"cum_death":0,"ID":40963,"CENTER_LON":7.41201715,"CENTER_LAT":43.75034615,"ADM0_VIZ_NAME":"Monaco","Short_Name_ZH":"摩纳哥","Short_Name_FR":"Monaco","Short_Name_ES":"Mónaco","Short_Name_RU":"Монако","Short_Name_AR":"موناكو","GlobalID":"75957385-78c9-4889-a00d-c83f241427ee"}},{"attributes":{"ADM0_NAME":"Mongolia","DateOfReport":1584316800000,"cum_conf":4,"cum_death":0,"ID":40964,"CENTER_LON":103.08303108,"CENTER_LAT":46.83520872,"ADM0_VIZ_NAME":"Mongolia","Short_Name_ZH":"蒙古","Short_Name_FR":"Mongolie","Short_Name_ES":"Mongolia","Short_Name_RU":"Монголия","Short_Name_AR":"منغوليا","GlobalID":"670d50b7-1641-4dfb-af23-07fc953f53d4"}},{"attributes":{"ADM0_NAME":"Morocco","DateOfReport":1584316800000,"cum_conf":38,"cum_death":2,"ID":40965,"CENTER_LON":-6.31780295,"CENTER_LAT":31.88355697,"ADM0_VIZ_NAME":"Morocco","Short_Name_ZH":"摩洛哥","Short_Name_FR":"Maroc","Short_Name_ES":"Marruecos","Short_Name_RU":"Марокко","Short_Name_AR":"المغرب","GlobalID":"3650a2ad-e550-42ee-869b-edb6a9a40d3c"}},{"attributes":{"ADM0_NAME":"Namibia","DateOfReport":1584316800000,"cum_conf":2,"cum_death":0,"ID":40966,"CENTER_LON":17.21845028,"CENTER_LAT":-22.13329329,"ADM0_VIZ_NAME":"Namibia","Short_Name_ZH":"纳米比亚","Short_Name_FR":"Namibie","Short_Name_ES":"Namibia","Short_Name_RU":"Намибия","Short_Name_AR":"ناميبيا","GlobalID":"e370ddd6-468c-44a7-9e45-70b8397eef1a"}},{"attributes":{"ADM0_NAME":"Nepal","DateOfReport":1584316800000,"cum_conf":1,"cum_death":0,"ID":40967,"CENTER_LON":83.93851707,"CENTER_LAT":28.25300785,"ADM0_VIZ_NAME":"Nepal","Short_Name_ZH":"尼泊尔","Short_Name_FR":"Népal","Short_Name_ES":"Nepal","Short_Name_RU":"Непал","Short_Name_AR":"نيبال","GlobalID":"f265c0cc-7e29-4311-82d3-73784ce34374"}},{"attributes":{"ADM0_NAME":"Netherlands","DateOfReport":1584316800000,"cum_conf":1413,"cum_death":24,"ID":40968,"CENTER_LON":5.60099776,"CENTER_LAT":52.2535763,"ADM0_VIZ_NAME":"Netherlands","Short_Name_ZH":"荷兰","Short_Name_FR":"Pays-Bas","Short_Name_ES":"Países Bajos","Short_Name_RU":"Нидерланды","Short_Name_AR":"هولندا","GlobalID":"aa8f4f22-a1fd-473b-83f7-2a2fa89faa67"}},{"attributes":{"ADM0_NAME":"New Zealand","DateOfReport":1584316800000,"cum_conf":11,"cum_death":0,"ID":40969,"CENTER_LON":171.60397128,"CENTER_LAT":-41.83710689,"ADM0_VIZ_NAME":"New Zealand","Short_Name_ZH":"新西兰","Short_Name_FR":"Nouvelle-Zélande","Short_Name_ES":"Nueva Zelandia","Short_Name_RU":"Новая Зеландия","Short_Name_AR":"نيوزيلندا","GlobalID":"efdb84b0-aacc-42bf-a0f7-b6f91c219557"}},{"attributes":{"ADM0_NAME":"Nigeria","DateOfReport":1584316800000,"cum_conf":2,"cum_death":0,"ID":40970,"CENTER_LON":8.10527726,"CENTER_LAT":9.59360399,"ADM0_VIZ_NAME":"Nigeria","Short_Name_ZH":"尼日利亚","Short_Name_FR":"Nigéria","Short_Name_ES":"Nigeria","Short_Name_RU":"Нигерия","Short_Name_AR":"نيجيريا","GlobalID":"46a5e8e6-fc1b-4087-8ede-dca3794f2d4f"}},{"attributes":{"ADM0_NAME":"North Macedonia","DateOfReport":1584316800000,"cum_conf":19,"cum_death":0,"ID":40971,"CENTER_LON":21.6991485,"CENTER_LAT":41.59922075,"ADM0_VIZ_NAME":"North Macedonia","Short_Name_ZH":"北马其顿","Short_Name_FR":"Macédoine du Nord","Short_Name_ES":"Macedonia del Norte","Short_Name_RU":"Северная Македония","Short_Name_AR":"مقدونيا الشمالية","GlobalID":"089ce846-9982-4d30-885e-62deb363ccaa"}},{"attributes":{"ADM0_NAME":"Norway","DateOfReport":1584316800000,"cum_conf":1169,"cum_death":3,"ID":40972,"CENTER_LON":14.07508911,"CENTER_LAT":64.44784887,"ADM0_VIZ_NAME":"Norway","Short_Name_ZH":"挪威","Short_Name_FR":"Norvège","Short_Name_ES":"Noruega","Short_Name_RU":"Норвегия","Short_Name_AR":"النرويج","GlobalID":"7d99a890-7b7e-45d7-bbf2-a72d046f8787"}},{"attributes":{"ADM0_NAME":"Occupied Palestinian Territory","DateOfReport":1584316800000,"cum_conf":39,"cum_death":0,"ID":40973,"CENTER_LON":35.20376878,"CENTER_LAT":31.91395114,"ADM0_VIZ_NAME":"occupied Palestinian territory","Short_Name_ZH":"occupied Palestinian territory","Short_Name_FR":null,"Short_Name_ES":null,"Short_Name_RU":null,"Short_Name_AR":null,"GlobalID":"892fe570-d2b4-433a-b42d-89050114556a"}},{"attributes":{"ADM0_NAME":"Oman","DateOfReport":1584316800000,"cum_conf":24,"cum_death":0,"ID":40974,"CENTER_LON":56.10981747,"CENTER_LAT":20.60208368,"ADM0_VIZ_NAME":"Oman","Short_Name_ZH":"阿曼","Short_Name_FR":"Oman","Short_Name_ES":"Omán","Short_Name_RU":"Оман","Short_Name_AR":"عمان","GlobalID":"4614e0f5-a629-4a9b-8621-4bc1359c897a"}},{"attributes":{"ADM0_NAME":"Pakistan","DateOfReport":1584316800000,"cum_conf":53,"cum_death":0,"ID":40975,"CENTER_LON":69.38581881,"CENTER_LAT":29.96678898,"ADM0_VIZ_NAME":"Pakistan","Short_Name_ZH":"巴基斯坦","Short_Name_FR":"Pakistan","Short_Name_ES":"Pakistán","Short_Name_RU":"Пакистан","Short_Name_AR":"باكستان","GlobalID":"96726d89-e72e-4cb8-910a-726f73f0a6d9"}},{"attributes":{"ADM0_NAME":"Panama","DateOfReport":1584316800000,"cum_conf":69,"cum_death":1,"ID":40976,"CENTER_LON":-80.10906884,"CENTER_LAT":8.50544318,"ADM0_VIZ_NAME":"Panama","Short_Name_ZH":"巴拿马","Short_Name_FR":"Panama","Short_Name_ES":"Panamá","Short_Name_RU":"Панама","Short_Name_AR":"بنما","GlobalID":"b5e84141-ddcd-49c1-a20a-a2a84443394d"}},{"attributes":{"ADM0_NAME":"Paraguay","DateOfReport":1584316800000,"cum_conf":9,"cum_death":0,"ID":40977,"CENTER_LON":-58.39095178,"CENTER_LAT":-23.23612887,"ADM0_VIZ_NAME":"Paraguay","Short_Name_ZH":"巴拉圭","Short_Name_FR":"Paraguay","Short_Name_ES":"Paraguay","Short_Name_RU":"Парагвай","Short_Name_AR":"باراغواي","GlobalID":"40028c2e-b248-44dc-bb67-4b989d094b7d"}},{"attributes":{"ADM0_NAME":"Peru","DateOfReport":1584316800000,"cum_conf":86,"cum_death":0,"ID":40978,"CENTER_LON":-74.37540668,"CENTER_LAT":-9.16377133,"ADM0_VIZ_NAME":"Peru","Short_Name_ZH":"秘鲁","Short_Name_FR":"Pérou","Short_Name_ES":"Perú","Short_Name_RU":"Перу","Short_Name_AR":"بيرو","GlobalID":"d5fc0690-707c-4919-8b05-f9134a1be5ab"}},{"attributes":{"ADM0_NAME":"Philippines","DateOfReport":1584316800000,"cum_conf":187,"cum_death":12,"ID":40979,"CENTER_LON":122.87360743,"CENTER_LAT":11.74740203,"ADM0_VIZ_NAME":"Philippines","Short_Name_ZH":"菲律宾","Short_Name_FR":"Philippines","Short_Name_ES":"Filipinas","Short_Name_RU":"Филиппины","Short_Name_AR":"الفلبين","GlobalID":"ad17b692-1b82-484f-8ada-caf44c180c6c"}},{"attributes":{"ADM0_NAME":"Poland","DateOfReport":1584316800000,"cum_conf":150,"cum_death":3,"ID":40980,"CENTER_LON":19.40092017,"CENTER_LAT":52.12472405,"ADM0_VIZ_NAME":"Poland","Short_Name_ZH":"波兰","Short_Name_FR":"Pologne","Short_Name_ES":"Polonia","Short_Name_RU":"Польша","Short_Name_AR":"بولندا","GlobalID":"400b6616-df2e-44fd-b17e-0fd80bd54dee"}},{"attributes":{"ADM0_NAME":"Portugal","DateOfReport":1584316800000,"cum_conf":331,"cum_death":0,"ID":40981,"CENTER_LON":-8.46736074,"CENTER_LAT":39.60269511,"ADM0_VIZ_NAME":"Portugal","Short_Name_ZH":"葡萄牙","Short_Name_FR":"Portugal","Short_Name_ES":"Portugal","Short_Name_RU":"Португалия","Short_Name_AR":"البرتغال","GlobalID":"a78a8a32-671d-4304-aa8e-a12171160e46"}},{"attributes":{"ADM0_NAME":"Puerto Rico","DateOfReport":1584316800000,"cum_conf":3,"cum_death":0,"ID":40982,"CENTER_LON":-66.46612748,"CENTER_LAT":18.22093074,"ADM0_VIZ_NAME":"Puerto Rico","Short_Name_ZH":null,"Short_Name_FR":null,"Short_Name_ES":null,"Short_Name_RU":null,"Short_Name_AR":null,"GlobalID":"70925ee2-7275-4a46-8317-63de50034589"}},{"attributes":{"ADM0_NAME":"Qatar","DateOfReport":1584316800000,"cum_conf":439,"cum_death":0,"ID":40983,"CENTER_LON":51.19120083,"CENTER_LAT":25.31580997,"ADM0_VIZ_NAME":"Qatar","Short_Name_ZH":"卡塔尔","Short_Name_FR":"Qatar","Short_Name_ES":"Qatar","Short_Name_RU":"Катар","Short_Name_AR":"قطر","GlobalID":"f8014e76-eeca-40a5-8fb2-a7a468a61a99"}},{"attributes":{"ADM0_NAME":"Republic of Korea","DateOfReport":1584316800000,"cum_conf":8320,"cum_death":81,"ID":40984,"CENTER_LON":127.82934392,"CENTER_LAT":36.36770228,"ADM0_VIZ_NAME":"Republic of Korea","Short_Name_ZH":"大韩民国","Short_Name_FR":"République de Corée","Short_Name_ES":"República de Corea","Short_Name_RU":"Республика Корея","Short_Name_AR":"جمهورية كوريا","GlobalID":"7600cd6f-fab0-4a7b-9134-5f7fab9ec724"}},{"attributes":{"ADM0_NAME":"Republic of Moldova","DateOfReport":1584316800000,"cum_conf":27,"cum_death":0,"ID":40985,"CENTER_LON":28.47434317,"CENTER_LAT":47.19332561,"ADM0_VIZ_NAME":"Republic of Moldova","Short_Name_ZH":"摩尔多瓦共和国","Short_Name_FR":"République de Moldova","Short_Name_ES":"la República de Moldova","Short_Name_RU":"Республика Молдова","Short_Name_AR":" جمهورية مولدوفا","GlobalID":"345a9a57-c741-429f-98a4-2ac8b155fa87"}},{"attributes":{"ADM0_NAME":"Réunion","DateOfReport":1584316800000,"cum_conf":9,"cum_death":0,"ID":40986,"CENTER_LON":55.53821274,"CENTER_LAT":-21.12162946,"ADM0_VIZ_NAME":"Réunion","Short_Name_ZH":null,"Short_Name_FR":null,"Short_Name_ES":null,"Short_Name_RU":null,"Short_Name_AR":null,"GlobalID":"f6c90e9c-5c8c-474f-b0b0-a49a5fc924b7"}},{"attributes":{"ADM0_NAME":"Romania","DateOfReport":1584316800000,"cum_conf":158,"cum_death":0,"ID":40987,"CENTER_LON":24.96990758,"CENTER_LAT":45.84360558,"ADM0_VIZ_NAME":"Romania","Short_Name_ZH":"罗马尼亚","Short_Name_FR":"Roumanie","Short_Name_ES":"Rumania","Short_Name_RU":"Румыния","Short_Name_AR":"رومانيا","GlobalID":"2a1a08a8-0259-4da8-9bd8-aaa974f08043"}},{"attributes":{"ADM0_NAME":"Russian Federation","DateOfReport":1584316800000,"cum_conf":93,"cum_death":0,"ID":40988,"CENTER_LON":96.68944215,"CENTER_LAT":61.9882456,"ADM0_VIZ_NAME":"Russian Federation","Short_Name_ZH":"俄罗斯联邦","Short_Name_FR":"Fédération de Russie","Short_Name_ES":"Federación de Rusia","Short_Name_RU":"Российская Федерация","Short_Name_AR":"الاتحاد الروسي","GlobalID":"41e1d50f-c598-4b42-aec4-12beddf8dc6f"}},{"attributes":{"ADM0_NAME":"Rwanda","DateOfReport":1584316800000,"cum_conf":7,"cum_death":0,"ID":40989,"CENTER_LON":29.91720553,"CENTER_LAT":-1.99796798,"ADM0_VIZ_NAME":"Rwanda","Short_Name_ZH":"卢旺达","Short_Name_FR":"Rwanda","Short_Name_ES":"Rwanda","Short_Name_RU":"Руанда","Short_Name_AR":"رواندا","GlobalID":"f88aa6cf-a61b-4946-9111-7c6f3b6753ac"}},{"attributes":{"ADM0_NAME":"Saint Barthelemy","DateOfReport":1584316800000,"cum_conf":3,"cum_death":0,"ID":40990,"CENTER_LON":-62.83353803,"CENTER_LAT":17.9057614,"ADM0_VIZ_NAME":"Saint Barthelemy","Short_Name_ZH":"Saint Barthélemy","Short_Name_FR":null,"Short_Name_ES":null,"Short_Name_RU":null,"Short_Name_AR":null,"GlobalID":"5086e162-ab5b-4ad9-8a59-b789dda46420"}},{"attributes":{"ADM0_NAME":"Saint Martin","DateOfReport":1584316800000,"cum_conf":2,"cum_death":0,"ID":40991,"CENTER_LON":-63.06457229,"CENTER_LAT":18.0876049,"ADM0_VIZ_NAME":"Saint Martin","Short_Name_ZH":"Saint Martin","Short_Name_FR":null,"Short_Name_ES":null,"Short_Name_RU":null,"Short_Name_AR":null,"GlobalID":"76d38da0-db62-4c3a-a786-deb138d6c485"}},{"attributes":{"ADM0_NAME":"Saint Vincent and the Grenadines","DateOfReport":1584316800000,"cum_conf":1,"cum_death":0,"ID":40992,"CENTER_LON":-61.20753009,"CENTER_LAT":13.20205468,"ADM0_VIZ_NAME":"Saint Vincent and the Grenadines","Short_Name_ZH":"圣文森特和格林纳丁斯","Short_Name_FR":"Saint-Vincent-et-les Grenadines","Short_Name_ES":"San Vicente y las Granadinas","Short_Name_RU":"Сент-Винсент и Гренадины","Short_Name_AR":"سانت فنسنت وجزر غرينادين","GlobalID":"c0368454-236d-4cdb-93f0-0cacb3023b4c"}},{"attributes":{"ADM0_NAME":"San Marino","DateOfReport":1584316800000,"cum_conf":102,"cum_death":9,"ID":40993,"CENTER_LON":12.46035762,"CENTER_LAT":43.94191474,"ADM0_VIZ_NAME":"San Marino","Short_Name_ZH":"圣马力诺","Short_Name_FR":"Saint-Marin","Short_Name_ES":"San Marino","Short_Name_RU":"Сан-Марино","Short_Name_AR":"سان مارينو","GlobalID":"838128de-1b36-4a42-a4b7-33e0ea10f62f"}},{"attributes":{"ADM0_NAME":"Saudi Arabia","DateOfReport":1584316800000,"cum_conf":133,"cum_death":0,"ID":40994,"CENTER_LON":44.57044965,"CENTER_LAT":24.08088192,"ADM0_VIZ_NAME":"Saudi Arabia","Short_Name_ZH":"沙特阿拉伯","Short_Name_FR":"Arabie saoudite","Short_Name_ES":"Arabia Saudita","Short_Name_RU":"Саудовская Аравия","Short_Name_AR":"المملكة العربية السعودية","GlobalID":"0d700b8b-4dfe-4d29-9937-e2602f643d18"}},{"attributes":{"ADM0_NAME":"Senegal","DateOfReport":1584316800000,"cum_conf":27,"cum_death":0,"ID":40995,"CENTER_LON":-14.46817708,"CENTER_LAT":14.36697954,"ADM0_VIZ_NAME":"Senegal","Short_Name_ZH":"塞内加尔","Short_Name_FR":"Sénégal","Short_Name_ES":"Senegal","Short_Name_RU":"Сенегал","Short_Name_AR":"السنغال","GlobalID":"d2dda5e7-ef50-438d-ae42-efb29f994932"}},{"attributes":{"ADM0_NAME":"Serbia","DateOfReport":1584316800000,"cum_conf":70,"cum_death":0,"ID":40996,"CENTER_LON":20.81133086,"CENTER_LAT":44.03387222,"ADM0_VIZ_NAME":"Serbia","Short_Name_ZH":"塞尔维亚","Short_Name_FR":"Serbie","Short_Name_ES":"Serbia","Short_Name_RU":"Сербия","Short_Name_AR":"صربيا","GlobalID":"14a865c8-19ab-48fb-9286-54ec5ed9775b"}},{"attributes":{"ADM0_NAME":"Seychelles","DateOfReport":1584316800000,"cum_conf":4,"cum_death":0,"ID":40997,"CENTER_LON":52.23005901,"CENTER_LAT":-6.39906405,"ADM0_VIZ_NAME":"Seychelles","Short_Name_ZH":"塞舌尔","Short_Name_FR":"Seychelles","Short_Name_ES":"Seychelles","Short_Name_RU":"Сейшельские Острова","Short_Name_AR":"سيشيل","GlobalID":"57f304c2-4ffc-4039-b695-74915b8843f5"}},{"attributes":{"ADM0_NAME":"Singapore","DateOfReport":1584316800000,"cum_conf":243,"cum_death":0,"ID":40998,"CENTER_LON":103.80765359,"CENTER_LAT":1.35118038,"ADM0_VIZ_NAME":"Singapore","Short_Name_ZH":"新加坡","Short_Name_FR":"Singapour","Short_Name_ES":"Singapur","Short_Name_RU":"Сингапур","Short_Name_AR":"سنغافورة","GlobalID":"b2166918-1e5d-4469-8ab2-526406df9a9e"}},{"attributes":{"ADM0_NAME":"Slovakia","DateOfReport":1584316800000,"cum_conf":72,"cum_death":0,"ID":40999,"CENTER_LON":19.49145028,"CENTER_LAT":48.7073588,"ADM0_VIZ_NAME":"Slovakia","Short_Name_ZH":"斯洛伐克","Short_Name_FR":"Slovaquie","Short_Name_ES":"Eslovaquia","Short_Name_RU":"Словакия","Short_Name_AR":"سلوفاكيا","GlobalID":"3523023a-c73d-490f-880d-8e57c4e62243"}},{"attributes":{"ADM0_NAME":"Slovenia","DateOfReport":1584316800000,"cum_conf":253,"cum_death":0,"ID":41000,"CENTER_LON":14.82707444,"CENTER_LAT":46.12355026,"ADM0_VIZ_NAME":"Slovenia","Short_Name_ZH":"斯洛文尼亚","Short_Name_FR":"Slovénie","Short_Name_ES":"Eslovenia","Short_Name_RU":"Словения","Short_Name_AR":"سلوفينيا","GlobalID":"c7556851-8d93-47a8-94fb-a56e120bc694"}},{"attributes":{"ADM0_NAME":"South Africa","DateOfReport":1584316800000,"cum_conf":62,"cum_death":0,"ID":41001,"CENTER_LON":25.08871199,"CENTER_LAT":-28.99321352,"ADM0_VIZ_NAME":"South Africa","Short_Name_ZH":"南非","Short_Name_FR":"Afrique du Sud","Short_Name_ES":"Sudáfrica","Short_Name_RU":"Южная Африка","Short_Name_AR":"جنوب أفريقيا","GlobalID":"308b7a17-25b5-4937-a874-5d678018e212"}},{"attributes":{"ADM0_NAME":"Spain","DateOfReport":1584316800000,"cum_conf":9191,"cum_death":309,"ID":41002,"CENTER_LON":-3.64931118,"CENTER_LAT":40.22749596,"ADM0_VIZ_NAME":"Spain","Short_Name_ZH":"西班牙","Short_Name_FR":"Espagne","Short_Name_ES":"España","Short_Name_RU":"Испания","Short_Name_AR":"إسبانيا","GlobalID":"9a6b1489-a6a5-406b-bb5a-9ff9251a3b5d"}},{"attributes":{"ADM0_NAME":"Sri Lanka","DateOfReport":1584316800000,"cum_conf":29,"cum_death":0,"ID":41003,"CENTER_LON":80.70426262,"CENTER_LAT":7.61236243,"ADM0_VIZ_NAME":"Sri Lanka","Short_Name_ZH":"斯里兰卡","Short_Name_FR":"Sri Lanka","Short_Name_ES":"Sri Lanka","Short_Name_RU":"Шри-Ланка","Short_Name_AR":"سري لانكا","GlobalID":"36babb4b-5b62-448c-a910-23dd09636a0f"}},{"attributes":{"ADM0_NAME":"Sudan","DateOfReport":1584316800000,"cum_conf":2,"cum_death":1,"ID":41004,"CENTER_LON":30.00438135,"CENTER_LAT":16.04883821,"ADM0_VIZ_NAME":"Sudan","Short_Name_ZH":null,"Short_Name_FR":null,"Short_Name_ES":null,"Short_Name_RU":null,"Short_Name_AR":null,"GlobalID":"626e7c87-588a-4ce5-b0ad-51eb78f8f73e"}},{"attributes":{"ADM0_NAME":"Sweden","DateOfReport":1584316800000,"cum_conf":1059,"cum_death":3,"ID":41005,"CENTER_LON":16.74115526,"CENTER_LAT":62.78774226,"ADM0_VIZ_NAME":"Sweden","Short_Name_ZH":"瑞典","Short_Name_FR":"Suède","Short_Name_ES":"Suecia","Short_Name_RU":"Швеция","Short_Name_AR":"السويد","GlobalID":"bc976131-05f1-4b93-9d33-b4902aa6df5e"}},{"attributes":{"ADM0_NAME":"Switzerland","DateOfReport":1584316800000,"cum_conf":2200,"cum_death":14,"ID":41006,"CENTER_LON":8.23458738,"CENTER_LAT":46.8025828,"ADM0_VIZ_NAME":"Switzerland","Short_Name_ZH":"瑞士","Short_Name_FR":"Suisse","Short_Name_ES":"Suiza","Short_Name_RU":"Швейцария","Short_Name_AR":"سويسرا","GlobalID":"9c3923b6-6bba-43ad-9434-48f869701063"}},{"attributes":{"ADM0_NAME":"Thailand","DateOfReport":1584316800000,"cum_conf":147,"cum_death":1,"ID":41007,"CENTER_LON":101.01490782,"CENTER_LAT":15.11989876,"ADM0_VIZ_NAME":"Thailand","Short_Name_ZH":"泰国","Short_Name_FR":"Thaïlande","Short_Name_ES":"Tailandia","Short_Name_RU":"Таиланд","Short_Name_AR":"تايلند","GlobalID":"218811e3-9276-41bf-9be0-27844ec4e8e6"}},{"attributes":{"ADM0_NAME":"The United Kingdom","DateOfReport":1584316800000,"cum_conf":1547,"cum_death":55,"ID":41008,"CENTER_LON":-2.90049476,"CENTER_LAT":54.1601792,"ADM0_VIZ_NAME":"The United Kingdom","Short_Name_ZH":"大不列颠及北爱尔兰联合王国","Short_Name_FR":"Royaume-Uni de Grande-Bretagne et d'Irlande du Nord","Short_Name_ES":"Reino Unido de Gran Bretaña e Irlanda del Norte","Short_Name_RU":"Соединенное Королевство Великобритании и Северной Ирландии","Short_Name_AR":"المملكة المتحدة لبريطانيا العظمى وآيرلندا الشمالية ","GlobalID":"1fb47e8a-ddde-496f-8797-10e031203be3"}},{"attributes":{"ADM0_NAME":"Togo","DateOfReport":1584316800000,"cum_conf":1,"cum_death":0,"ID":41009,"CENTER_LON":0.97584596,"CENTER_LAT":8.53491037,"ADM0_VIZ_NAME":"Togo","Short_Name_ZH":"多哥","Short_Name_FR":"Togo","Short_Name_ES":"Togo (el)","Short_Name_RU":"Того","Short_Name_AR":"توغو","GlobalID":"6d58513d-f7e0-4bbb-9b7b-32f54fb60e3f"}},{"attributes":{"ADM0_NAME":"Trinidad and Tobago","DateOfReport":1584316800000,"cum_conf":5,"cum_death":0,"ID":41010,"CENTER_LON":-61.25263722,"CENTER_LAT":10.46836429,"ADM0_VIZ_NAME":"Trinidad and Tobago","Short_Name_ZH":"特立尼达和多巴哥","Short_Name_FR":"Trinité-et-Tobago","Short_Name_ES":"Trinidad y Tabago","Short_Name_RU":"Тринидад и Тобаго ","Short_Name_AR":"ترينيداد وتوباغو","GlobalID":"7874f77a-710c-4051-96f4-6e4e0af3f5d7"}},{"attributes":{"ADM0_NAME":"Tunisia","DateOfReport":1584316800000,"cum_conf":20,"cum_death":0,"ID":41011,"CENTER_LON":9.56156142,"CENTER_LAT":34.11124917,"ADM0_VIZ_NAME":"Tunisia","Short_Name_ZH":"突尼斯","Short_Name_FR":"Tunisie","Short_Name_ES":"Túnez","Short_Name_RU":"Тунис","Short_Name_AR":"تونس","GlobalID":"e457e000-8e0a-4268-9134-8a7678391f37"}},{"attributes":{"ADM0_NAME":"Turkey","DateOfReport":1584316800000,"cum_conf":47,"cum_death":0,"ID":41012,"CENTER_LON":35.17921811,"CENTER_LAT":39.06061856,"ADM0_VIZ_NAME":"Turkey","Short_Name_ZH":"土耳其","Short_Name_FR":"Turquie","Short_Name_ES":"Turquía","Short_Name_RU":"Турция","Short_Name_AR":"تركيا","GlobalID":"f4a8a78c-5cec-4cdc-8ac5-f878dce456ec"}},{"attributes":{"ADM0_NAME":"Ukraine","DateOfReport":1584316800000,"cum_conf":7,"cum_death":1,"ID":41013,"CENTER_LON":31.38784552,"CENTER_LAT":49.01609429,"ADM0_VIZ_NAME":"Ukraine","Short_Name_ZH":"乌克兰","Short_Name_FR":"Ukraine","Short_Name_ES":"Ucrania","Short_Name_RU":"Украина","Short_Name_AR":"أوكرانيا","GlobalID":"cadf5aba-ffde-4e19-add6-cfd8d1847257"}},{"attributes":{"ADM0_NAME":"United Arab Emirates","DateOfReport":1584316800000,"cum_conf":98,"cum_death":0,"ID":41014,"CENTER_LON":54.33219878,"CENTER_LAT":23.91267254,"ADM0_VIZ_NAME":"United Arab Emirates","Short_Name_ZH":"阿拉伯联合酋长国","Short_Name_FR":"Émirats arabes unis","Short_Name_ES":"Emiratos Árabes Unidos","Short_Name_RU":"Объединенные Арабские Эмираты","Short_Name_AR":"الإمارات العربية المتحدة","GlobalID":"6fdeeb53-e5d9-43ce-a930-ba8692c673f5"}},{"attributes":{"ADM0_NAME":"United States of America","DateOfReport":1584316800000,"cum_conf":3536,"cum_death":58,"ID":41015,"CENTER_LON":-112.49356447,"CENTER_LAT":45.6954816,"ADM0_VIZ_NAME":"United States of America","Short_Name_ZH":"美利坚合众国","Short_Name_FR":"États-Unis d'Amérique","Short_Name_ES":"Estados Unidos de América","Short_Name_RU":"Соединенные Штаты Америки","Short_Name_AR":"الولايات المتحدة الأمريكية ","GlobalID":"4959789a-757c-4edb-81ec-a8722db1f3ca"}},{"attributes":{"ADM0_NAME":"Venezuela (Bolivarian Republic of)","DateOfReport":1584316800000,"cum_conf":33,"cum_death":0,"ID":41016,"CENTER_LON":-66.16621515,"CENTER_LAT":7.12493711,"ADM0_VIZ_NAME":"Venezuela (Bolivarian Republic of)","Short_Name_ZH":"委内瑞拉(玻利瓦尔共和国)","Short_Name_FR":"Venezuela (République bolivarienne du)","Short_Name_ES":"Venezuela (República Bolivariana de)","Short_Name_RU":"Венесуэла (Боливарианская Республика)","Short_Name_AR":"فنزويلا","GlobalID":"a44eb623-88cb-4445-8e71-786b50dd8c34"}},{"attributes":{"ADM0_NAME":"Viet Nam","DateOfReport":1584316800000,"cum_conf":61,"cum_death":0,"ID":41017,"CENTER_LON":106.30403531,"CENTER_LAT":16.65160342,"ADM0_VIZ_NAME":"Viet Nam","Short_Name_ZH":"越南","Short_Name_FR":"Viet Nam","Short_Name_ES":"Viet Nam","Short_Name_RU":"Вьетнам","Short_Name_AR":"فييت نام","GlobalID":"17a670e3-aef1-4081-b185-d4538f366f37"}},{"attributes":{"ADM0_NAME":"Saint Lucia","DateOfReport":1584316800000,"cum_conf":2,"cum_death":0,"ID":41018,"CENTER_LON":-60.96869084,"CENTER_LAT":13.89811518,"ADM0_VIZ_NAME":"Saint Lucia","Short_Name_ZH":"圣卢西亚","Short_Name_FR":"Sainte-Lucie","Short_Name_ES":"Santa Lucía","Short_Name_RU":"Сент-Люсия","Short_Name_AR":"سانت لوسيا","GlobalID":"a1be32c3-febf-4002-b5ed-23bcde196117"}},{"attributes":{"ADM0_NAME":"Suriname","DateOfReport":1584316800000,"cum_conf":1,"cum_death":0,"ID":41019,"CENTER_LON":-55.91158124,"CENTER_LAT":4.12671321,"ADM0_VIZ_NAME":"Suriname","Short_Name_ZH":"苏里南","Short_Name_FR":"Suriname","Short_Name_ES":"Suriname","Short_Name_RU":"Суринам","Short_Name_AR":"سورينام","GlobalID":"e115c2e5-c80d-47e0-b268-efe8e4fb3ba1"}},{"attributes":{"ADM0_NAME":"Guatemala","DateOfReport":1584316800000,"cum_conf":1,"cum_death":1,"ID":41020,"CENTER_LON":-90.3569493,"CENTER_LAT":15.7023026,"ADM0_VIZ_NAME":"Guatemala","Short_Name_ZH":"危地马拉","Short_Name_FR":"Guatemala","Short_Name_ES":"Guatemala","Short_Name_RU":"Гватемала","Short_Name_AR":"غواتيمالا","GlobalID":"0196d372-b617-4081-956a-92666ab104c1"}},{"attributes":{"ADM0_NAME":"Uruguay","DateOfReport":1584316800000,"cum_conf":6,"cum_death":0,"ID":41021,"CENTER_LON":-56.01217362,"CENTER_LAT":-32.79956992,"ADM0_VIZ_NAME":"Uruguay","Short_Name_ZH":"乌拉圭","Short_Name_FR":"Uruguay","Short_Name_ES":"Uruguay","Short_Name_RU":"Уругвай","Short_Name_AR":"أوروغواي","GlobalID":"aaa5c59c-98c9-43fe-bc85-d1a5ca71a064"}},{"attributes":{"ADM0_NAME":"China","DateOfReport":1584316800000,"cum_conf":81949,"cum_death":3325,"ID":41022,"CENTER_LON":103.8934731,"CENTER_LAT":36.51870146,"ADM0_VIZ_NAME":"China","Short_Name_ZH":"中国","Short_Name_FR":"Chine","Short_Name_ES":"China","Short_Name_RU":"Китай","Short_Name_AR":"الصين","GlobalID":"16484cc1-bfaf-4e3a-b65f-4e37fd8fc224"}},{"attributes":{"ADM0_NAME":"Cote d’Ivoire","DateOfReport":1584316800000,"cum_conf":6,"cum_death":0,"ID":41023,"CENTER_LON":-5.55549992,"CENTER_LAT":7.6317253,"ADM0_VIZ_NAME":"Côte d’Ivoire","Short_Name_ZH":"科特迪瓦","Short_Name_FR":"Côte d'Ivoire","Short_Name_ES":"Côte d'Ivoire","Short_Name_RU":"Кот-д'Ивуар","Short_Name_AR":"كوت ديفوار","GlobalID":"b1aca647-d519-4ded-b064-5208fc23c80c"}},{"attributes":{"ADM0_NAME":"United States Virgin Islands","DateOfReport":1584316800000,"cum_conf":2,"cum_death":0,"ID":41024,"CENTER_LON":-64.78692721,"CENTER_LAT":17.9678899,"ADM0_VIZ_NAME":"United States Virgin Islands","Short_Name_ZH":null,"Short_Name_FR":null,"Short_Name_ES":null,"Short_Name_RU":null,"Short_Name_AR":null,"GlobalID":"c7ef8f24-5552-4f18-8d2e-25e23b41533b"}},{"attributes":{"ADM0_NAME":"Uzbekistan","DateOfReport":1584316800000,"cum_conf":4,"cum_death":0,"ID":41025,"CENTER_LON":63.16950578,"CENTER_LAT":41.75041661,"ADM0_VIZ_NAME":"Uzbekistan","Short_Name_ZH":"乌兹别克斯坦","Short_Name_FR":"Ouzbékistan","Short_Name_ES":"Uzbekistán","Short_Name_RU":"Узбекистан","Short_Name_AR":"أوزبكستان","GlobalID":"dd584391-ae14-4128-b3fe-42a4ed05305f"}},{"attributes":{"ADM0_NAME":"Somalia","DateOfReport":1584316800000,"cum_conf":1,"cum_death":0,"ID":41026,"CENTER_LON":45.86255927,"CENTER_LAT":6.0637135,"ADM0_VIZ_NAME":"Somalia","Short_Name_ZH":"索马里","Short_Name_FR":"Somalie","Short_Name_ES":"Somalia","Short_Name_RU":"Сомали","Short_Name_AR":"الصومال","GlobalID":"761a666e-752c-4f6e-a15a-696019c11a8e"}},{"attributes":{"ADM0_NAME":"Benin","DateOfReport":1584316800000,"cum_conf":1,"cum_death":0,"ID":41027,"CENTER_LON":2.34326271,"CENTER_LAT":9.64764997,"ADM0_VIZ_NAME":"Benin","Short_Name_ZH":"贝宁","Short_Name_FR":"Bénin","Short_Name_ES":"Benin","Short_Name_RU":"Бенин","Short_Name_AR":"بنن","GlobalID":"e9e4cd47-611f-441b-8e3c-237d13cc5ff5"}},{"attributes":{"ADM0_NAME":"Liberia","DateOfReport":1584316800000,"cum_conf":1,"cum_death":0,"ID":41028,"CENTER_LON":-9.30784656,"CENTER_LAT":6.44811846,"ADM0_VIZ_NAME":"Liberia","Short_Name_ZH":"利比里亚","Short_Name_FR":"Libéria","Short_Name_ES":"Liberia","Short_Name_RU":"Либерия","Short_Name_AR":"ليبريا","GlobalID":"6eb22eaf-c637-4d49-93f9-6c9a2f600d48"}},{"attributes":{"ADM0_NAME":"United Republic of Tanzania","DateOfReport":1584316800000,"cum_conf":1,"cum_death":0,"ID":41029,"CENTER_LON":34.82340201,"CENTER_LAT":-6.27019905,"ADM0_VIZ_NAME":"United Republic of Tanzania","Short_Name_ZH":"坦桑尼亚联合共和国","Short_Name_FR":"République-Unie de Tanzanie","Short_Name_ES":"República Unida de Tanzanía","Short_Name_RU":"Объединенная Республика Танзания","Short_Name_AR":"جمهورية تنزانيا المتحدة","GlobalID":"51e10a42-fd9e-44ab-b330-735cd168912d"}},{"attributes":{"ADM0_NAME":"Guam","DateOfReport":1584316800000,"cum_conf":3,"cum_death":0,"ID":41030,"CENTER_LON":144.77585678,"CENTER_LAT":13.44403107,"ADM0_VIZ_NAME":"Guam","Short_Name_ZH":null,"Short_Name_FR":null,"Short_Name_ES":null,"Short_Name_RU":null,"Short_Name_AR":null,"GlobalID":"09066913-3bd1-43a7-b9ad-c1d1e87d4f17"}},{"attributes":{"ADM0_NAME":"Aruba","DateOfReport":1584316800000,"cum_conf":2,"cum_death":0,"ID":41031,"CENTER_LON":-69.97713313,"CENTER_LAT":12.51668736,"ADM0_VIZ_NAME":"Aruba","Short_Name_ZH":null,"Short_Name_FR":null,"Short_Name_ES":null,"Short_Name_RU":null,"Short_Name_AR":null,"GlobalID":"0cfe8439-f2d1-444b-b86a-a4e83e3d1e34"}},{"attributes":{"ADM0_NAME":"Bahamas","DateOfReport":1584316800000,"cum_conf":1,"cum_death":0,"ID":41032,"CENTER_LON":-76.5004385,"CENTER_LAT":24.1666829,"ADM0_VIZ_NAME":"Bahamas","Short_Name_ZH":"巴哈马","Short_Name_FR":"Bahamas","Short_Name_ES":"Bahamas","Short_Name_RU":"Багамские Острова","Short_Name_AR":"جزر البهاما","GlobalID":"0f1fb157-0b0d-43e1-b995-3791ea0dbd34"}}]}