{"objectIdFieldName":"ID","uniqueIdField":{"name":"ID","isSystemMaintained":true},"globalIdFieldName":"GlobalID","geometryType":"esriGeometryPolygon","spatialReference":{"wkid":4326,"latestWkid":4326},"fields":[{"name":"ADM0_NAME","type":"esriFieldTypeString","alias":"ADM0_NAME","sqlType":"sqlTypeOther","length":255,"domain":null,"defaultValue":null},{"name":"DateOfReport","type":"esriFieldTypeDate","alias":"DateOfReport","sqlType":"sqlTypeOther","length":8,"domain":null,"defaultValue":null},{"name":"cum_conf","type":"esriFieldTypeInteger","alias":"cum_conf","sqlType":"sqlTypeOther","domain":null,"defaultValue":null},{"name":"cum_death","type":"esriFieldTypeInteger","alias":"cum_death","sqlType":"sqlTypeOther","domain":null,"defaultValue":null},{"name":"ID","type":"esriFieldTypeOID","alias":"ID","sqlType":"sqlTypeOther","domain":null,"defaultValue":null},{"name":"CENTER_LON","type":"esriFieldTypeDouble","alias":"CENTER_LON","sqlType":"sqlTypeOther","domain":null,"defaultValue":null},{"name":"CENTER_LAT","type":"esriFieldTypeDouble","alias":"CENTER_LAT","sqlType":"sqlTypeOther","domain":null,"defaultValue":null},{"name":"ADM0_VIZ_NAME","type":"esriFieldTypeString","alias":"ADM0_VIZ_NAME","sqlType":"sqlTypeOther","length":255,"domain":null,"defaultValue":null},{"name":"Short_Name_ZH","type":"esriFieldTypeString","alias":"Short_Name_ZH","sqlType":"sqlTypeOther","length":255,"domain":null,"defaultValue":null},{"name":"Short_Name_FR","type":"esriFieldTypeString","alias":"Short_Name_FR","sqlType":"sqlTypeOther","length":255,"domain":null,"defaultValue":null},{"name":"Short_Name_ES","type":"esriFieldTypeString","alias":"Short_Name_ES","sqlType":"sqlTypeOther","length":255,"domain":null,"defaultValue":null},{"name":"Short_Name_RU","type":"esriFieldTypeString","alias":"Short_Name_RU","sqlType":"sqlTypeOther","length":255,"domain":null,"defaultValue":null},{"name":"Short_Name_AR","type":"esriFieldTypeString","alias":"Short_Name_AR","sqlType":"sqlTypeOther","length":255,"domain":null,"defaultValue":null},{"name":"GlobalID","type":"esriFieldTypeGlobalID","alias":"GlobalID","sqlType":"sqlTypeOther","length":38,"domain":null}],"features":[{"attributes":{"ADM0_NAME":"AFGHANISTAN","DateOfReport":1583712000000,"cum_conf":4,"cum_death":0,"ID":38675,"CENTER_LON":66.02652977,"CENTER_LAT":33.83890116,"ADM0_VIZ_NAME":"Afghanistan","Short_Name_ZH":"阿富汗","Short_Name_FR":"Afghanistan","Short_Name_ES":"Afganistán","Short_Name_RU":"Афганистан","Short_Name_AR":"أفغانستان","GlobalID":"658644b1-4deb-4669-a729-a277cfe1b23f"}},{"attributes":{"ADM0_NAME":"ALBANIA","DateOfReport":1583712000000,"cum_conf":6,"cum_death":0,"ID":38676,"CENTER_LON":20.06917817,"CENTER_LAT":41.14595803,"ADM0_VIZ_NAME":"Albania","Short_Name_ZH":"阿尔巴尼亚","Short_Name_FR":"Albanie","Short_Name_ES":"Albania","Short_Name_RU":"Албания","Short_Name_AR":"ألبانيا","GlobalID":"da486e25-3938-4dcb-8c01-d876f4f4d94d"}},{"attributes":{"ADM0_NAME":"ALGERIA","DateOfReport":1583712000000,"cum_conf":20,"cum_death":0,"ID":38677,"CENTER_LON":2.63236595,"CENTER_LAT":28.16335741,"ADM0_VIZ_NAME":"Algeria","Short_Name_ZH":"阿尔及利亚","Short_Name_FR":"Algérie","Short_Name_ES":"Argelia","Short_Name_RU":"Алжир","Short_Name_AR":"الجزائر","GlobalID":"0a762ab5-ebc5-4446-a35a-494d96ec544c"}},{"attributes":{"ADM0_NAME":"ANDORRA","DateOfReport":1583712000000,"cum_conf":1,"cum_death":0,"ID":38678,"CENTER_LON":1.57568833,"CENTER_LAT":42.54858297,"ADM0_VIZ_NAME":"Andorra","Short_Name_ZH":"安道尔","Short_Name_FR":"Andorre","Short_Name_ES":"Andorra","Short_Name_RU":"Андорра","Short_Name_AR":"أندورا","GlobalID":"e23f448f-de51-480f-9601-7f237fad9298"}},{"attributes":{"ADM0_NAME":"ARGENTINA","DateOfReport":1583712000000,"cum_conf":12,"cum_death":1,"ID":38679,"CENTER_LON":-65.16748474,"CENTER_LAT":-35.37667253,"ADM0_VIZ_NAME":"Argentina","Short_Name_ZH":"阿根廷 ","Short_Name_FR":"Argentine","Short_Name_ES":"Argentina","Short_Name_RU":"Аргентина","Short_Name_AR":"الأرجنتين","GlobalID":"4ab0e8ac-72ce-4109-bcac-219986513940"}},{"attributes":{"ADM0_NAME":"ARMENIA","DateOfReport":1583712000000,"cum_conf":1,"cum_death":0,"ID":38680,"CENTER_LON":44.94793424,"CENTER_LAT":40.28641688,"ADM0_VIZ_NAME":"Armenia","Short_Name_ZH":"亚美尼亚","Short_Name_FR":"Arménie","Short_Name_ES":"Armenia","Short_Name_RU":"Армения","Short_Name_AR":"أرمينيا","GlobalID":"b8f9149a-f45d-4b67-a2e7-4df5e9237530"}},{"attributes":{"ADM0_NAME":"AUSTRALIA","DateOfReport":1583712000000,"cum_conf":92,"cum_death":3,"ID":38681,"CENTER_LON":134.49097595,"CENTER_LAT":-25.73326023,"ADM0_VIZ_NAME":"Australia","Short_Name_ZH":"澳大利亚","Short_Name_FR":"Australie","Short_Name_ES":"Australia","Short_Name_RU":"Австралия","Short_Name_AR":"أستراليا","GlobalID":"7c207017-64a7-4f02-a5d5-17e562c1eba5"}},{"attributes":{"ADM0_NAME":"AUSTRIA","DateOfReport":1583712000000,"cum_conf":131,"cum_death":0,"ID":38682,"CENTER_LON":14.13998831,"CENTER_LAT":47.59295768,"ADM0_VIZ_NAME":"Austria","Short_Name_ZH":"奥地利","Short_Name_FR":"Autriche","Short_Name_ES":"Austria","Short_Name_RU":"Австрия","Short_Name_AR":"النمسا","GlobalID":"dbc26b1c-6f1b-4c21-ae36-94a06677bec2"}},{"attributes":{"ADM0_NAME":"AZERBAIJAN","DateOfReport":1583712000000,"cum_conf":9,"cum_death":0,"ID":38683,"CENTER_LON":47.53232681,"CENTER_LAT":40.2922195,"ADM0_VIZ_NAME":"Azerbaijan","Short_Name_ZH":"阿塞拜疆","Short_Name_FR":"Azerbaïdjan","Short_Name_ES":"Azerbaiyán","Short_Name_RU":"Азербайджан","Short_Name_AR":"أذربيجان","GlobalID":"d973b437-0301-4a89-83b2-5f7456f25d82"}},{"attributes":{"ADM0_NAME":"BAHRAIN","DateOfReport":1583712000000,"cum_conf":109,"cum_death":0,"ID":38684,"CENTER_LON":50.56248915,"CENTER_LAT":26.01947392,"ADM0_VIZ_NAME":"Bahrain","Short_Name_ZH":"巴林","Short_Name_FR":"Bahreïn","Short_Name_ES":"Bahrein","Short_Name_RU":"Бахрейн","Short_Name_AR":"البحرين","GlobalID":"687fce87-54cd-4e78-856c-d351483d0d0c"}},{"attributes":{"ADM0_NAME":"BANGLADESH","DateOfReport":1583712000000,"cum_conf":3,"cum_death":0,"ID":38685,"CENTER_LON":90.27092576,"CENTER_LAT":23.8330072,"ADM0_VIZ_NAME":"Bangladesh","Short_Name_ZH":"孟加拉国","Short_Name_FR":"Bangladesh","Short_Name_ES":"Bangladesh","Short_Name_RU":"Бангладеш","Short_Name_AR":"بنغلاديش","GlobalID":"222da474-71f8-4eaa-ac4b-9aa51d4bcbef"}},{"attributes":{"ADM0_NAME":"BELARUS","DateOfReport":1583712000000,"cum_conf":9,"cum_death":0,"ID":38686,"CENTER_LON":28.04696448,"CENTER_LAT":53.54021951,"ADM0_VIZ_NAME":"Belarus","Short_Name_ZH":"白俄罗斯","Short_Name_FR":"Bélarus","Short_Name_ES":"Belarús","Short_Name_RU":"Беларусь","Short_Name_AR":"بيلاروس","GlobalID":"77911ee6-5926-42b9-9725-fd17df10606c"}},{"attributes":{"ADM0_NAME":"BELGIUM","DateOfReport":1583712000000,"cum_conf":239,"cum_death":0,"ID":38687,"CENTER_LON":4.66434841,"CENTER_LAT":50.64295176,"ADM0_VIZ_NAME":"Belgium","Short_Name_ZH":"比利时","Short_Name_FR":"Belgique","Short_Name_ES":"Bélgica","Short_Name_RU":"Бельгия","Short_Name_AR":"بلجيكا","GlobalID":"9ec133fa-51c4-49a6-b118-60d0bca0e8a3"}},{"attributes":{"ADM0_NAME":"BHUTAN","DateOfReport":1583712000000,"cum_conf":1,"cum_death":0,"ID":38688,"CENTER_LON":90.42943275,"CENTER_LAT":27.41546082,"ADM0_VIZ_NAME":"Bhutan","Short_Name_ZH":"不丹","Short_Name_FR":"Bhoutan","Short_Name_ES":"Bhután","Short_Name_RU":"Бутан","Short_Name_AR":"بوتان","GlobalID":"1b1446e6-82da-4cd8-b30b-d73fea39b253"}},{"attributes":{"ADM0_NAME":"BOSNIA AND HERZEGOVINA","DateOfReport":1583712000000,"cum_conf":2,"cum_death":0,"ID":38689,"CENTER_LON":17.78861095,"CENTER_LAT":44.16643966,"ADM0_VIZ_NAME":"Bosnia and Herzegovina","Short_Name_ZH":"波斯尼亚和黑塞哥维那","Short_Name_FR":"Bosnie-Herzégovine","Short_Name_ES":"Bosnia y Herzegovina","Short_Name_RU":"Босния и Герцеговина","Short_Name_AR":"البوسنة والهرسك","GlobalID":"2b7a9f3e-b8b2-4a7b-ba4c-d04f89adc96f"}},{"attributes":{"ADM0_NAME":"BRAZIL","DateOfReport":1583712000000,"cum_conf":25,"cum_death":0,"ID":38690,"CENTER_LON":-53.08875436,"CENTER_LAT":-10.7722828,"ADM0_VIZ_NAME":"Brazil","Short_Name_ZH":"巴西","Short_Name_FR":"Brésil","Short_Name_ES":"Brasil","Short_Name_RU":"Бразилия","Short_Name_AR":"البرازيل","GlobalID":"7d5c6821-55b1-4cd8-b2d9-16fcd9e3466f"}},{"attributes":{"ADM0_NAME":"BULGARIA","DateOfReport":1583712000000,"cum_conf":4,"cum_death":0,"ID":38691,"CENTER_LON":25.23475756,"CENTER_LAT":42.76032141,"ADM0_VIZ_NAME":"Bulgaria","Short_Name_ZH":"保加利亚","Short_Name_FR":"Bulgarie","Short_Name_ES":"Bulgaria","Short_Name_RU":"Болгария","Short_Name_AR":"بلغاريا","GlobalID":"e8cd2ea8-2a28-4b39-a90b-3dedf07f0b67"}},{"attributes":{"ADM0_NAME":"CAMBODIA","DateOfReport":1583712000000,"cum_conf":3,"cum_death":0,"ID":38692,"CENTER_LON":104.92123962,"CENTER_LAT":12.71402994,"ADM0_VIZ_NAME":"Cambodia","Short_Name_ZH":"柬埔寨","Short_Name_FR":"Cambodge","Short_Name_ES":"Camboya","Short_Name_RU":"Камбоджа","Short_Name_AR":"كمبوديا","GlobalID":"9e18a5ec-cb0f-419a-a49d-39c4798391b1"}},{"attributes":{"ADM0_NAME":"CAMEROON","DateOfReport":1583712000000,"cum_conf":2,"cum_death":0,"ID":38693,"CENTER_LON":12.7432535,"CENTER_LAT":5.68580436,"ADM0_VIZ_NAME":"Cameroon","Short_Name_ZH":"喀麦隆","Short_Name_FR":"Cameroun","Short_Name_ES":"Camerún","Short_Name_RU":"Камерун","Short_Name_AR":"الكاميرون","GlobalID":"3b16a851-84da-47d4-ba55-759e608903a5"}},{"attributes":{"ADM0_NAME":"CANADA","DateOfReport":1583712000000,"cum_conf":77,"cum_death":0,"ID":38694,"CENTER_LON":-98.26094698,"CENTER_LAT":61.3930667,"ADM0_VIZ_NAME":"Canada","Short_Name_ZH":"加拿大","Short_Name_FR":"Canada","Short_Name_ES":"Canadá","Short_Name_RU":"Канада","Short_Name_AR":"كندا","GlobalID":"e6c3c8db-1194-4b50-bb16-bcfd04f3ba62"}},{"attributes":{"ADM0_NAME":"CHILE","DateOfReport":1583712000000,"cum_conf":13,"cum_death":0,"ID":38695,"CENTER_LON":-71.38009385,"CENTER_LAT":-37.86811922,"ADM0_VIZ_NAME":"Chile","Short_Name_ZH":"智利","Short_Name_FR":"Chili","Short_Name_ES":"Chile","Short_Name_RU":"Чили","Short_Name_AR":"شيلي","GlobalID":"fd08c75e-735a-40ff-b9aa-87c54c977869"}},{"attributes":{"ADM0_NAME":"CHINA","DateOfReport":1583712000000,"cum_conf":80924,"cum_death":3140,"ID":38696,"CENTER_LON":103.8934731,"CENTER_LAT":36.51870146,"ADM0_VIZ_NAME":"China","Short_Name_ZH":"中国","Short_Name_FR":"Chine","Short_Name_ES":"China","Short_Name_RU":"Китай","Short_Name_AR":"الصين","GlobalID":"7a17af5d-7e34-4f87-bfdb-23d2d30966be"}},{"attributes":{"ADM0_NAME":"COLOMBIA","DateOfReport":1583712000000,"cum_conf":3,"cum_death":0,"ID":38697,"CENTER_LON":-73.07576335,"CENTER_LAT":3.90037401,"ADM0_VIZ_NAME":"Colombia","Short_Name_ZH":"哥伦比亚","Short_Name_FR":"Colombie","Short_Name_ES":"Colombia","Short_Name_RU":"Колумбия","Short_Name_AR":"كولومبيا","GlobalID":"0b15914a-046e-4cf8-a17c-4fcae305ec90"}},{"attributes":{"ADM0_NAME":"COSTA RICA","DateOfReport":1583712000000,"cum_conf":9,"cum_death":0,"ID":38698,"CENTER_LON":-84.18903867,"CENTER_LAT":9.97052135,"ADM0_VIZ_NAME":"Costa Rica","Short_Name_ZH":"哥斯达黎加","Short_Name_FR":"Costa Rica","Short_Name_ES":"Costa Rica","Short_Name_RU":"Коста-Рика","Short_Name_AR":"كوستاريكا","GlobalID":"1061e3a8-5449-4453-8d78-187a2d172ef8"}},{"attributes":{"ADM0_NAME":"CROATIA","DateOfReport":1583712000000,"cum_conf":12,"cum_death":0,"ID":38699,"CENTER_LON":16.40934249,"CENTER_LAT":45.04363696,"ADM0_VIZ_NAME":"Croatia","Short_Name_ZH":"克罗地亚","Short_Name_FR":"Croatie","Short_Name_ES":"Croacia","Short_Name_RU":"Хорватия","Short_Name_AR":"كرواتيا","GlobalID":"3057887f-56e7-4335-aeab-e8487717f184"}},{"attributes":{"ADM0_NAME":"CZECH REPUBLIC","DateOfReport":1583712000000,"cum_conf":38,"cum_death":0,"ID":38700,"CENTER_LON":15.33833995,"CENTER_LAT":49.74303614,"ADM0_VIZ_NAME":"Czech Republic","Short_Name_ZH":"捷克","Short_Name_FR":"Tchéquie","Short_Name_ES":"Chequia","Short_Name_RU":"Чехия","Short_Name_AR":"تشيكيا","GlobalID":"2321a87b-a980-45b6-a244-531655eb71e4"}},{"attributes":{"ADM0_NAME":"DENMARK","DateOfReport":1583712000000,"cum_conf":156,"cum_death":0,"ID":38701,"CENTER_LON":10.05082082,"CENTER_LAT":55.9623328,"ADM0_VIZ_NAME":"Denmark","Short_Name_ZH":"丹麦","Short_Name_FR":"Danemark","Short_Name_ES":"Dinamarca","Short_Name_RU":"Дания","Short_Name_AR":"الدانمرك","GlobalID":"5bbeb072-83f5-47d9-95ea-11a39c08c34c"}},{"attributes":{"ADM0_NAME":"DOMINICAN REPUBLIC","DateOfReport":1583712000000,"cum_conf":5,"cum_death":0,"ID":38702,"CENTER_LON":-70.48543447,"CENTER_LAT":18.89309386,"ADM0_VIZ_NAME":"Dominican Republic","Short_Name_ZH":"多米尼加 ","Short_Name_FR":"République dominicaine","Short_Name_ES":"República Dominicana","Short_Name_RU":"Доминиканская Республика","Short_Name_AR":"الجمهورية الدومينيكية","GlobalID":"c6cd5dee-83af-4061-bba1-421041189cfd"}},{"attributes":{"ADM0_NAME":"ECUADOR","DateOfReport":1583712000000,"cum_conf":15,"cum_death":0,"ID":38703,"CENTER_LON":-78.78096177,"CENTER_LAT":-1.42528337,"ADM0_VIZ_NAME":"Ecuador","Short_Name_ZH":"厄瓜多尔","Short_Name_FR":"Équateur","Short_Name_ES":"Ecuador","Short_Name_RU":"Эквадор","Short_Name_AR":"إكوادور","GlobalID":"c07bee10-7347-4808-aa63-adb0e9368aa5"}},{"attributes":{"ADM0_NAME":"EGYPT","DateOfReport":1583712000000,"cum_conf":59,"cum_death":1,"ID":38704,"CENTER_LON":29.78210708,"CENTER_LAT":26.5565646,"ADM0_VIZ_NAME":"Egypt","Short_Name_ZH":"埃及","Short_Name_FR":"Égypte","Short_Name_ES":"Egipto","Short_Name_RU":"Египет","Short_Name_AR":"مصر","GlobalID":"4f006f14-ec59-41b9-91d7-6555c557b991"}},{"attributes":{"ADM0_NAME":"ESTONIA","DateOfReport":1583712000000,"cum_conf":10,"cum_death":0,"ID":38705,"CENTER_LON":25.5257709,"CENTER_LAT":58.67400787,"ADM0_VIZ_NAME":"Estonia","Short_Name_ZH":"爱沙尼亚","Short_Name_FR":"Estonie","Short_Name_ES":"Estonia","Short_Name_RU":"Эстония","Short_Name_AR":"إستونيا","GlobalID":"5a58a957-ac13-4120-8e8e-a8a8e1622123"}},{"attributes":{"ADM0_NAME":"FAROE ISLANDS","DateOfReport":1583712000000,"cum_conf":2,"cum_death":0,"ID":38706,"CENTER_LON":-6.86363602,"CENTER_LAT":62.050314,"ADM0_VIZ_NAME":"Faroe Islands","Short_Name_ZH":"Faroe Islands","Short_Name_FR":null,"Short_Name_ES":null,"Short_Name_RU":null,"Short_Name_AR":null,"GlobalID":"3bb80fcf-7b71-4d67-bed4-88150e67510c"}},{"attributes":{"ADM0_NAME":"FINLAND","DateOfReport":1583712000000,"cum_conf":40,"cum_death":0,"ID":38707,"CENTER_LON":26.2588423,"CENTER_LAT":64.49433129,"ADM0_VIZ_NAME":"Finland","Short_Name_ZH":"芬兰","Short_Name_FR":"Finlande","Short_Name_ES":"Finlandia","Short_Name_RU":"Финляндия","Short_Name_AR":"فنلندا","GlobalID":"64852e96-ab83-4bc4-8176-266b176582b1"}},{"attributes":{"ADM0_NAME":"FRANCE","DateOfReport":1583712000000,"cum_conf":1402,"cum_death":30,"ID":38708,"CENTER_LON":2.55042646,"CENTER_LAT":46.56487403,"ADM0_VIZ_NAME":"France","Short_Name_ZH":"法国","Short_Name_FR":"France","Short_Name_ES":"Francia","Short_Name_RU":"Франция","Short_Name_AR":"فرنسا","GlobalID":"181c3b41-e711-419e-916d-dd14b5c4ecc4"}},{"attributes":{"ADM0_NAME":"FRENCH GUIANA","DateOfReport":1583712000000,"cum_conf":5,"cum_death":0,"ID":38709,"CENTER_LON":-53.24126696,"CENTER_LAT":3.9243882,"ADM0_VIZ_NAME":"French Guiana","Short_Name_ZH":"French Guiana","Short_Name_FR":null,"Short_Name_ES":null,"Short_Name_RU":null,"Short_Name_AR":null,"GlobalID":"55d10a3f-1755-457a-ba94-befa0c1733c3"}},{"attributes":{"ADM0_NAME":"GEORGIA","DateOfReport":1583712000000,"cum_conf":15,"cum_death":0,"ID":38710,"CENTER_LON":43.51757115,"CENTER_LAT":42.17632583,"ADM0_VIZ_NAME":"Georgia","Short_Name_ZH":"格鲁吉亚","Short_Name_FR":"Géorgie","Short_Name_ES":"Georgia","Short_Name_RU":"Грузия","Short_Name_AR":"جورجيا","GlobalID":"cdf4fb04-275c-41bd-bd46-2efa727eda49"}},{"attributes":{"ADM0_NAME":"GERMANY","DateOfReport":1583712000000,"cum_conf":1139,"cum_death":2,"ID":38711,"CENTER_LON":10.39232967,"CENTER_LAT":51.11015396,"ADM0_VIZ_NAME":"Germany","Short_Name_ZH":"德国","Short_Name_FR":"Allemagne","Short_Name_ES":"Alemania","Short_Name_RU":"Германия","Short_Name_AR":"ألمانيا","GlobalID":"68e9c22a-56d9-4fa8-8862-30d5454f40d1"}},{"attributes":{"ADM0_NAME":"GIBRALTAR","DateOfReport":1583712000000,"cum_conf":1,"cum_death":0,"ID":38712,"CENTER_LON":-5.34488893,"CENTER_LAT":36.1381932,"ADM0_VIZ_NAME":"Gibraltar","Short_Name_ZH":"Gibraltar","Short_Name_FR":null,"Short_Name_ES":null,"Short_Name_RU":null,"Short_Name_AR":null,"GlobalID":"06a781a1-c09f-4dab-b43a-31ad5a1851c3"}},{"attributes":{"ADM0_NAME":"GREECE","DateOfReport":1583712000000,"cum_conf":89,"cum_death":0,"ID":38713,"CENTER_LON":22.9879848,"CENTER_LAT":39.04452874,"ADM0_VIZ_NAME":"Greece","Short_Name_ZH":"希腊","Short_Name_FR":"Grèce","Short_Name_ES":"Grecia","Short_Name_RU":"Греция","Short_Name_AR":"اليونان","GlobalID":"fd06aee8-4bf2-47cb-8c97-5aadd5b99bad"}},{"attributes":{"ADM0_NAME":"HOLY SEE","DateOfReport":1583712000000,"cum_conf":1,"cum_death":0,"ID":38714,"CENTER_LON":12.48571114,"CENTER_LAT":41.89324195,"ADM0_VIZ_NAME":"Holy See","Short_Name_ZH":"Holy See","Short_Name_FR":null,"Short_Name_ES":null,"Short_Name_RU":null,"Short_Name_AR":null,"GlobalID":"8f79f85a-08ad-4efb-be0c-502a5dac99a9"}},{"attributes":{"ADM0_NAME":"HUNGARY","DateOfReport":1583712000000,"cum_conf":12,"cum_death":0,"ID":38715,"CENTER_LON":19.41342813,"CENTER_LAT":47.16647906,"ADM0_VIZ_NAME":"Hungary","Short_Name_ZH":"匈牙利","Short_Name_FR":"Hongrie","Short_Name_ES":"Hungría","Short_Name_RU":"Венгрия","Short_Name_AR":"هنغاريا","GlobalID":"98b23c83-863c-4b22-9145-8012062b52aa"}},{"attributes":{"ADM0_NAME":"ICELAND","DateOfReport":1583712000000,"cum_conf":55,"cum_death":0,"ID":38716,"CENTER_LON":-18.6057026,"CENTER_LAT":64.99764998,"ADM0_VIZ_NAME":"Iceland","Short_Name_ZH":"冰岛","Short_Name_FR":"Islande","Short_Name_ES":"Islandia","Short_Name_RU":"Исландия","Short_Name_AR":"آيسلندا","GlobalID":"f814d6f1-0842-4d92-a7cf-b09a00cfe700"}},{"attributes":{"ADM0_NAME":"INDIA","DateOfReport":1583712000000,"cum_conf":44,"cum_death":0,"ID":38717,"CENTER_LON":79.6188183,"CENTER_LAT":22.88132057,"ADM0_VIZ_NAME":"India","Short_Name_ZH":"印度","Short_Name_FR":"Inde","Short_Name_ES":"India","Short_Name_RU":"Индия","Short_Name_AR":"الهند","GlobalID":"e2f7b388-271e-4308-8beb-5db130ec6ec4"}},{"attributes":{"ADM0_NAME":"INDONESIA","DateOfReport":1583712000000,"cum_conf":19,"cum_death":0,"ID":38718,"CENTER_LON":117.31101692,"CENTER_LAT":-2.22903453,"ADM0_VIZ_NAME":"Indonesia","Short_Name_ZH":"印度尼西亚","Short_Name_FR":"Indonésie","Short_Name_ES":"Indonesia","Short_Name_RU":"Индонезия","Short_Name_AR":"إندونيسيا","GlobalID":"16cc0078-bf97-4ff8-9cf0-1678781d1512"}},{"attributes":{"ADM0_NAME":"International conveyance (Diamond Princess)","DateOfReport":1583712000000,"cum_conf":696,"cum_death":7,"ID":38719,"CENTER_LON":null,"CENTER_LAT":null,"ADM0_VIZ_NAME":"International conveyance (Diamond Princess)","Short_Name_ZH":"International conveyance (Diamond Princess)","Short_Name_FR":null,"Short_Name_ES":null,"Short_Name_RU":null,"Short_Name_AR":null,"GlobalID":"ef6b565e-019f-4705-a07c-ba289a6adc7e"}},{"attributes":{"ADM0_NAME":"IRAN (ISLAMIC REPUBLIC OF)","DateOfReport":1583712000000,"cum_conf":7161,"cum_death":237,"ID":38720,"CENTER_LON":54.30141376,"CENTER_LAT":32.56479959,"ADM0_VIZ_NAME":"Iran (Islamic Republic of)","Short_Name_ZH":"伊朗（伊斯兰共和国）","Short_Name_FR":"Iran (République islamique d')","Short_Name_ES":"Irán (República Islámica del)","Short_Name_RU":"Иран (Исламская Республика)","Short_Name_AR":"إيران (جمهورية - الإسلامية)","GlobalID":"940773e7-8101-4bc6-b0ca-c20c57c3b65e"}},{"attributes":{"ADM0_NAME":"IRAQ","DateOfReport":1583712000000,"cum_conf":61,"cum_death":6,"ID":38721,"CENTER_LON":43.77224552,"CENTER_LAT":33.04800654,"ADM0_VIZ_NAME":"Iraq","Short_Name_ZH":"伊拉克","Short_Name_FR":"Iraq","Short_Name_ES":"Iraq","Short_Name_RU":"Ирак","Short_Name_AR":"العراق","GlobalID":"48878e9e-30a1-4879-b3f5-49dbd0614f95"}},{"attributes":{"ADM0_NAME":"IRELAND","DateOfReport":1583712000000,"cum_conf":24,"cum_death":0,"ID":38722,"CENTER_LON":-8.1515763,"CENTER_LAT":53.17708682,"ADM0_VIZ_NAME":"Ireland","Short_Name_ZH":"爱尔兰","Short_Name_FR":"Irlande","Short_Name_ES":"Irlanda","Short_Name_RU":"Ирландия","Short_Name_AR":"آيرلندا","GlobalID":"f6d1c709-a665-4a23-8469-835c60d3c460"}},{"attributes":{"ADM0_NAME":"ISRAEL","DateOfReport":1583712000000,"cum_conf":39,"cum_death":0,"ID":38723,"CENTER_LON":34.96598271,"CENTER_LAT":31.35805652,"ADM0_VIZ_NAME":"Israel","Short_Name_ZH":"以色列","Short_Name_FR":"Israël","Short_Name_ES":"Israel","Short_Name_RU":"Израиль","Short_Name_AR":"إسرائيل","GlobalID":"eb73ef2f-8917-47c1-a4fd-0ebb084e8c37"}},{"attributes":{"ADM0_NAME":"ITALY","DateOfReport":1583712000000,"cum_conf":9172,"cum_death":463,"ID":38724,"CENTER_LON":12.07165559,"CENTER_LAT":42.79119167,"ADM0_VIZ_NAME":"Italy","Short_Name_ZH":"意大利","Short_Name_FR":"Italie","Short_Name_ES":"Italia","Short_Name_RU":"Италия","Short_Name_AR":"إيطاليا","GlobalID":"cc4cd601-8687-4bbb-9902-16a808c93c5a"}},{"attributes":{"ADM0_NAME":"JAPAN","DateOfReport":1583712000000,"cum_conf":514,"cum_death":9,"ID":38725,"CENTER_LON":137.97387026,"CENTER_LAT":37.53982621,"ADM0_VIZ_NAME":"Japan","Short_Name_ZH":"日本","Short_Name_FR":"Japon","Short_Name_ES":"Japón","Short_Name_RU":"Япония","Short_Name_AR":"اليابان","GlobalID":"d3334156-1588-4ac8-a51a-54c62582f31d"}},{"attributes":{"ADM0_NAME":"JORDAN","DateOfReport":1583712000000,"cum_conf":1,"cum_death":0,"ID":38726,"CENTER_LON":36.78694114,"CENTER_LAT":31.25338179,"ADM0_VIZ_NAME":"Jordan","Short_Name_ZH":"约旦","Short_Name_FR":"Jordanie","Short_Name_ES":"Jordania","Short_Name_RU":"Иордания","Short_Name_AR":"الأردن","GlobalID":"d7ec6391-025a-4d20-a606-5b74ddba3864"}},{"attributes":{"ADM0_NAME":"KUWAIT","DateOfReport":1583712000000,"cum_conf":65,"cum_death":0,"ID":38727,"CENTER_LON":47.59355128,"CENTER_LAT":29.34250906,"ADM0_VIZ_NAME":"Kuwait","Short_Name_ZH":"科威特","Short_Name_FR":"Koweït","Short_Name_ES":"Kuwait","Short_Name_RU":"Кувейт","Short_Name_AR":"الكويت","GlobalID":"c0c6f414-6117-462b-b26a-e17e207bbb0d"}},{"attributes":{"ADM0_NAME":"LATVIA","DateOfReport":1583712000000,"cum_conf":8,"cum_death":0,"ID":38728,"CENTER_LON":24.92915332,"CENTER_LAT":56.85766939,"ADM0_VIZ_NAME":"Latvia","Short_Name_ZH":"拉脱维亚","Short_Name_FR":"Lettonie","Short_Name_ES":"Letonia","Short_Name_RU":"Латвия","Short_Name_AR":"لاتفيا","GlobalID":"7c400f26-7700-4f1e-9136-90480f8c126c"}},{"attributes":{"ADM0_NAME":"LEBANON","DateOfReport":1583712000000,"cum_conf":41,"cum_death":0,"ID":38729,"CENTER_LON":35.88806123,"CENTER_LAT":33.92039304,"ADM0_VIZ_NAME":"Lebanon","Short_Name_ZH":"黎巴嫩","Short_Name_FR":"Liban","Short_Name_ES":"Líbano","Short_Name_RU":"Ливан","Short_Name_AR":"لبنان","GlobalID":"80c903be-a4b4-44cb-8655-2d5fc1beedaf"}},{"attributes":{"ADM0_NAME":"LIECHTENSTEIN","DateOfReport":1583712000000,"cum_conf":1,"cum_death":0,"ID":38730,"CENTER_LON":9.55526493,"CENTER_LAT":47.15259548,"ADM0_VIZ_NAME":"Liechtenstein","Short_Name_ZH":"Liechtenstein","Short_Name_FR":null,"Short_Name_ES":null,"Short_Name_RU":null,"Short_Name_AR":null,"GlobalID":"714508e7-80bd-4e22-8a43-093a5b6374ca"}},{"attributes":{"ADM0_NAME":"LITHUANIA","DateOfReport":1583712000000,"cum_conf":1,"cum_death":0,"ID":38731,"CENTER_LON":23.89683075,"CENTER_LAT":55.33585013,"ADM0_VIZ_NAME":"Lithuania","Short_Name_ZH":"立陶宛","Short_Name_FR":"Lituanie","Short_Name_ES":"Lituania","Short_Name_RU":"Литва","Short_Name_AR":"ليتوانيا","GlobalID":"cac1f815-58df-4386-899f-890d63bfcb9e"}},{"attributes":{"ADM0_NAME":"LUXEMBOURG","DateOfReport":1583712000000,"cum_conf":5,"cum_death":0,"ID":38732,"CENTER_LON":6.08754416,"CENTER_LAT":49.77096396,"ADM0_VIZ_NAME":"Luxembourg","Short_Name_ZH":"卢森堡","Short_Name_FR":"Luxembourg","Short_Name_ES":"Luxemburgo","Short_Name_RU":"Люксембург","Short_Name_AR":"لكسمبرغ","GlobalID":"eed856ee-f7ca-46d8-84f4-937c279871aa"}},{"attributes":{"ADM0_NAME":"MALAYSIA","DateOfReport":1583712000000,"cum_conf":117,"cum_death":0,"ID":38733,"CENTER_LON":109.7115743,"CENTER_LAT":3.79382045,"ADM0_VIZ_NAME":"Malaysia","Short_Name_ZH":"马来西亚","Short_Name_FR":"Malaisie","Short_Name_ES":"Malasia","Short_Name_RU":"Малайзия","Short_Name_AR":"ماليزيا","GlobalID":"ec53c64e-8b67-49eb-a65e-b548d441bb66"}},{"attributes":{"ADM0_NAME":"MALDIVES","DateOfReport":1583712000000,"cum_conf":6,"cum_death":0,"ID":38734,"CENTER_LON":73.25178478,"CENTER_LAT":3.37481932,"ADM0_VIZ_NAME":"Maldives","Short_Name_ZH":"马尔代夫","Short_Name_FR":"Maldives","Short_Name_ES":"Maldivas","Short_Name_RU":"Мальдивские Острова","Short_Name_AR":"ملديف","GlobalID":"98e31d87-b73d-41cc-8c2e-dc60363988f9"}},{"attributes":{"ADM0_NAME":"MALTA","DateOfReport":1583712000000,"cum_conf":4,"cum_death":0,"ID":38735,"CENTER_LON":14.40457358,"CENTER_LAT":35.92036651,"ADM0_VIZ_NAME":"Malta","Short_Name_ZH":"马耳他","Short_Name_FR":"Malte","Short_Name_ES":"Malta","Short_Name_RU":"Мальта","Short_Name_AR":"مالطة","GlobalID":"5355e4c8-461f-4b02-8430-d9c2957e2780"}},{"attributes":{"ADM0_NAME":"MARTINIQUE","DateOfReport":1583712000000,"cum_conf":2,"cum_death":0,"ID":38736,"CENTER_LON":-61.02147382,"CENTER_LAT":14.65277419,"ADM0_VIZ_NAME":"Martinique","Short_Name_ZH":"Martinique","Short_Name_FR":null,"Short_Name_ES":null,"Short_Name_RU":null,"Short_Name_AR":null,"GlobalID":"0aaf7ab2-9b0a-4c46-a4e9-ae1faf920070"}},{"attributes":{"ADM0_NAME":"MEXICO","DateOfReport":1583712000000,"cum_conf":7,"cum_death":0,"ID":38737,"CENTER_LON":-102.53499093,"CENTER_LAT":23.95092841,"ADM0_VIZ_NAME":"Mexico","Short_Name_ZH":"墨西哥","Short_Name_FR":"Mexique","Short_Name_ES":"México","Short_Name_RU":"Мексика","Short_Name_AR":"المكسيك","GlobalID":"2cce2206-98ec-422c-8611-3c2c416cf327"}},{"attributes":{"ADM0_NAME":"MONACO","DateOfReport":1583712000000,"cum_conf":1,"cum_death":0,"ID":38738,"CENTER_LON":7.41201715,"CENTER_LAT":43.75034615,"ADM0_VIZ_NAME":"Monaco","Short_Name_ZH":"摩纳哥","Short_Name_FR":"Monaco","Short_Name_ES":"Mónaco","Short_Name_RU":"Монако","Short_Name_AR":"موناكو","GlobalID":"c6b9fbab-876b-41c3-835c-798cc5b02af4"}},{"attributes":{"ADM0_NAME":"MOROCCO","DateOfReport":1583712000000,"cum_conf":2,"cum_death":0,"ID":38739,"CENTER_LON":-6.31780295,"CENTER_LAT":31.88355697,"ADM0_VIZ_NAME":"Morocco","Short_Name_ZH":"摩洛哥","Short_Name_FR":"Maroc","Short_Name_ES":"Marruecos","Short_Name_RU":"Марокко","Short_Name_AR":"المغرب","GlobalID":"d924b09e-a898-46c9-b739-f6535ad3f7c9"}},{"attributes":{"ADM0_NAME":"NEPAL","DateOfReport":1583712000000,"cum_conf":1,"cum_death":0,"ID":38740,"CENTER_LON":83.93851707,"CENTER_LAT":28.25300785,"ADM0_VIZ_NAME":"Nepal","Short_Name_ZH":"尼泊尔","Short_Name_FR":"Népal","Short_Name_ES":"Nepal","Short_Name_RU":"Непал","Short_Name_AR":"نيبال","GlobalID":"e47c1eb0-7cbc-4c35-bbae-570d3a3d0d8c"}},{"attributes":{"ADM0_NAME":"NETHERLANDS","DateOfReport":1583712000000,"cum_conf":321,"cum_death":3,"ID":38741,"CENTER_LON":5.60099776,"CENTER_LAT":52.2535763,"ADM0_VIZ_NAME":"Netherlands","Short_Name_ZH":"荷兰","Short_Name_FR":"Pays-Bas","Short_Name_ES":"Países Bajos","Short_Name_RU":"Нидерланды","Short_Name_AR":"هولندا","GlobalID":"6d634d9c-73b1-409e-bb4b-cf128a81c85f"}},{"attributes":{"ADM0_NAME":"NEW ZEALAND","DateOfReport":1583712000000,"cum_conf":5,"cum_death":0,"ID":38742,"CENTER_LON":171.60397128,"CENTER_LAT":-41.83710689,"ADM0_VIZ_NAME":"New Zealand","Short_Name_ZH":"新西兰","Short_Name_FR":"Nouvelle-Zélande","Short_Name_ES":"Nueva Zelandia","Short_Name_RU":"Новая Зеландия","Short_Name_AR":"نيوزيلندا","GlobalID":"7e57ae66-a45f-447d-952b-68de6fe139b7"}},{"attributes":{"ADM0_NAME":"NIGERIA","DateOfReport":1583712000000,"cum_conf":2,"cum_death":0,"ID":38743,"CENTER_LON":8.10527726,"CENTER_LAT":9.59360399,"ADM0_VIZ_NAME":"Nigeria","Short_Name_ZH":"尼日利亚","Short_Name_FR":"Nigéria","Short_Name_ES":"Nigeria","Short_Name_RU":"Нигерия","Short_Name_AR":"نيجيريا","GlobalID":"20d7b4da-d423-4e54-ab72-a977431554a0"}},{"attributes":{"ADM0_NAME":"NORTH MACEDONIA","DateOfReport":1583712000000,"cum_conf":7,"cum_death":0,"ID":38744,"CENTER_LON":21.6991485,"CENTER_LAT":41.59922075,"ADM0_VIZ_NAME":"North Macedonia","Short_Name_ZH":"北马其顿","Short_Name_FR":"Macédoine du Nord","Short_Name_ES":"Macedonia del Norte","Short_Name_RU":"Северная Македония","Short_Name_AR":"مقدونيا الشمالية","GlobalID":"318ddeeb-b548-4759-8117-e6ccb2f53f23"}},{"attributes":{"ADM0_NAME":"NORWAY","DateOfReport":1583712000000,"cum_conf":192,"cum_death":0,"ID":38745,"CENTER_LON":14.07508911,"CENTER_LAT":64.44784887,"ADM0_VIZ_NAME":"Norway","Short_Name_ZH":"挪威","Short_Name_FR":"Norvège","Short_Name_ES":"Noruega","Short_Name_RU":"Норвегия","Short_Name_AR":"النرويج","GlobalID":"5d019da5-930f-4883-92b7-a3775cf3bad1"}},{"attributes":{"ADM0_NAME":"occupied Palestinian territory","DateOfReport":1583712000000,"cum_conf":26,"cum_death":0,"ID":38746,"CENTER_LON":35.20376878,"CENTER_LAT":31.91395114,"ADM0_VIZ_NAME":"occupied Palestinian territory","Short_Name_ZH":"occupied Palestinian territory","Short_Name_FR":null,"Short_Name_ES":null,"Short_Name_RU":null,"Short_Name_AR":null,"GlobalID":"43dec505-0406-4ba6-a50f-b8bf3fbe2c88"}},{"attributes":{"ADM0_NAME":"OMAN","DateOfReport":1583712000000,"cum_conf":18,"cum_death":0,"ID":38747,"CENTER_LON":56.10981747,"CENTER_LAT":20.60208368,"ADM0_VIZ_NAME":"Oman","Short_Name_ZH":"阿曼","Short_Name_FR":"Oman","Short_Name_ES":"Omán","Short_Name_RU":"Оман","Short_Name_AR":"عمان","GlobalID":"ae8cd240-1bea-4b93-b8c6-45bd5e00b40d"}},{"attributes":{"ADM0_NAME":"PAKISTAN","DateOfReport":1583712000000,"cum_conf":16,"cum_death":0,"ID":38748,"CENTER_LON":69.38581881,"CENTER_LAT":29.96678898,"ADM0_VIZ_NAME":"Pakistan","Short_Name_ZH":"巴基斯坦","Short_Name_FR":"Pakistan","Short_Name_ES":"Pakistán","Short_Name_RU":"Пакистан","Short_Name_AR":"باكستان","GlobalID":"43a993e9-35ab-4dd6-a03f-e8c250c3a23a"}},{"attributes":{"ADM0_NAME":"PARAGUAY","DateOfReport":1583712000000,"cum_conf":1,"cum_death":0,"ID":38749,"CENTER_LON":-58.39095178,"CENTER_LAT":-23.23612887,"ADM0_VIZ_NAME":"Paraguay","Short_Name_ZH":"巴拉圭","Short_Name_FR":"Paraguay","Short_Name_ES":"Paraguay","Short_Name_RU":"Парагвай","Short_Name_AR":"باراغواي","GlobalID":"d9c5f483-07aa-4827-9856-92c7ac89eced"}},{"attributes":{"ADM0_NAME":"PERU","DateOfReport":1583712000000,"cum_conf":9,"cum_death":0,"ID":38750,"CENTER_LON":-74.37540668,"CENTER_LAT":-9.16377133,"ADM0_VIZ_NAME":"Peru","Short_Name_ZH":"秘鲁","Short_Name_FR":"Pérou","Short_Name_ES":"Perú","Short_Name_RU":"Перу","Short_Name_AR":"بيرو","GlobalID":"c21ea3d3-61a2-44ca-939b-7e14c29e806c"}},{"attributes":{"ADM0_NAME":"PHILIPPINES","DateOfReport":1583712000000,"cum_conf":33,"cum_death":1,"ID":38751,"CENTER_LON":122.87360743,"CENTER_LAT":11.74740203,"ADM0_VIZ_NAME":"Philippines","Short_Name_ZH":"菲律宾","Short_Name_FR":"Philippines","Short_Name_ES":"Filipinas","Short_Name_RU":"Филиппины","Short_Name_AR":"الفلبين","GlobalID":"4df5877f-8ca2-4b5d-83df-769b1fc00309"}},{"attributes":{"ADM0_NAME":"POLAND","DateOfReport":1583712000000,"cum_conf":16,"cum_death":0,"ID":38752,"CENTER_LON":19.40092017,"CENTER_LAT":52.12472405,"ADM0_VIZ_NAME":"Poland","Short_Name_ZH":"波兰","Short_Name_FR":"Pologne","Short_Name_ES":"Polonia","Short_Name_RU":"Польша","Short_Name_AR":"بولندا","GlobalID":"759c82ce-1582-474f-8daf-2b4fd5a2eaaf"}},{"attributes":{"ADM0_NAME":"PORTUGAL","DateOfReport":1583712000000,"cum_conf":30,"cum_death":0,"ID":38753,"CENTER_LON":-8.46736074,"CENTER_LAT":39.60269511,"ADM0_VIZ_NAME":"Portugal","Short_Name_ZH":"葡萄牙","Short_Name_FR":"Portugal","Short_Name_ES":"Portugal","Short_Name_RU":"Португалия","Short_Name_AR":"البرتغال","GlobalID":"a779de27-5013-4f97-a213-abc45abdb418"}},{"attributes":{"ADM0_NAME":"QATAR","DateOfReport":1583712000000,"cum_conf":18,"cum_death":0,"ID":38754,"CENTER_LON":51.19120083,"CENTER_LAT":25.31580997,"ADM0_VIZ_NAME":"Qatar","Short_Name_ZH":"卡塔尔","Short_Name_FR":"Qatar","Short_Name_ES":"Qatar","Short_Name_RU":"Катар","Short_Name_AR":"قطر","GlobalID":"1a6b1bc2-d702-448b-afaa-5bcb4e0d1f4a"}},{"attributes":{"ADM0_NAME":"REPUBLIC OF KOREA","DateOfReport":1583712000000,"cum_conf":7513,"cum_death":54,"ID":38755,"CENTER_LON":127.82934392,"CENTER_LAT":36.36770228,"ADM0_VIZ_NAME":"Republic of Korea","Short_Name_ZH":"大韩民国","Short_Name_FR":"République de Corée","Short_Name_ES":"República de Corea","Short_Name_RU":"Республика Корея","Short_Name_AR":"جمهورية كوريا","GlobalID":"4e37c252-481b-4576-ab6c-212b8d8ec33c"}},{"attributes":{"ADM0_NAME":"REPUBLIC OF MOLDOVA","DateOfReport":1583712000000,"cum_conf":1,"cum_death":0,"ID":38756,"CENTER_LON":28.47434317,"CENTER_LAT":47.19332561,"ADM0_VIZ_NAME":"Republic of Moldova","Short_Name_ZH":"摩尔多瓦共和国","Short_Name_FR":"République de Moldova","Short_Name_ES":"la República de Moldova","Short_Name_RU":"Республика Молдова","Short_Name_AR":" جمهورية مولدوفا","GlobalID":"084361c2-e747-4a72-890b-02d25843054e"}},{"attributes":{"ADM0_NAME":"ROMANIA","DateOfReport":1583712000000,"cum_conf":17,"cum_death":0,"ID":38757,"CENTER_LON":24.96990758,"CENTER_LAT":45.84360558,"ADM0_VIZ_NAME":"Romania","Short_Name_ZH":"罗马尼亚","Short_Name_FR":"Roumanie","Short_Name_ES":"Rumania","Short_Name_RU":"Румыния","Short_Name_AR":"رومانيا","GlobalID":"ac144b96-ba76-4b3b-a478-25543e5390f1"}},{"attributes":{"ADM0_NAME":"RUSSIAN FEDERATION","DateOfReport":1583712000000,"cum_conf":7,"cum_death":0,"ID":38758,"CENTER_LON":96.68944215,"CENTER_LAT":61.9882456,"ADM0_VIZ_NAME":"Russian Federation","Short_Name_ZH":"俄罗斯联邦","Short_Name_FR":"Fédération de Russie","Short_Name_ES":"Federación de Rusia","Short_Name_RU":"Российская Федерация","Short_Name_AR":"الاتحاد الروسي","GlobalID":"e040ad9c-91c7-46ff-a452-6caa12f38a4f"}},{"attributes":{"ADM0_NAME":"SAINT BARTHELEMY","DateOfReport":1583712000000,"cum_conf":1,"cum_death":0,"ID":38759,"CENTER_LON":-62.83353803,"CENTER_LAT":17.9057614,"ADM0_VIZ_NAME":"Saint Barthelemy","Short_Name_ZH":"Saint Barthélemy","Short_Name_FR":null,"Short_Name_ES":null,"Short_Name_RU":null,"Short_Name_AR":null,"GlobalID":"e0a16c1c-47b0-4040-84a5-5496d2bad558"}},{"attributes":{"ADM0_NAME":"SAINT MARTIN","DateOfReport":1583712000000,"cum_conf":2,"cum_death":0,"ID":38760,"CENTER_LON":-63.06457229,"CENTER_LAT":18.0876049,"ADM0_VIZ_NAME":"Saint Martin","Short_Name_ZH":"Saint Martin","Short_Name_FR":null,"Short_Name_ES":null,"Short_Name_RU":null,"Short_Name_AR":null,"GlobalID":"cf49af69-67e4-483d-998b-ec391d880188"}},{"attributes":{"ADM0_NAME":"SAN MARINO","DateOfReport":1583712000000,"cum_conf":49,"cum_death":2,"ID":38761,"CENTER_LON":12.46035762,"CENTER_LAT":43.94191474,"ADM0_VIZ_NAME":"San Marino","Short_Name_ZH":"圣马力诺","Short_Name_FR":"Saint-Marin","Short_Name_ES":"San Marino","Short_Name_RU":"Сан-Марино","Short_Name_AR":"سان مارينو","GlobalID":"2b9b7385-bf61-4b5f-831c-f2253539e7cb"}},{"attributes":{"ADM0_NAME":"SAUDI ARABIA","DateOfReport":1583712000000,"cum_conf":15,"cum_death":0,"ID":38762,"CENTER_LON":44.57044965,"CENTER_LAT":24.08088192,"ADM0_VIZ_NAME":"Saudi Arabia","Short_Name_ZH":"沙特阿拉伯","Short_Name_FR":"Arabie saoudite","Short_Name_ES":"Arabia Saudita","Short_Name_RU":"Саудовская Аравия","Short_Name_AR":"المملكة العربية السعودية","GlobalID":"e13f3f1c-7560-4b7d-a6a2-626a1c50faeb"}},{"attributes":{"ADM0_NAME":"SENEGAL","DateOfReport":1583712000000,"cum_conf":4,"cum_death":0,"ID":38763,"CENTER_LON":-14.46817708,"CENTER_LAT":14.36697954,"ADM0_VIZ_NAME":"Senegal","Short_Name_ZH":"塞内加尔","Short_Name_FR":"Sénégal","Short_Name_ES":"Senegal","Short_Name_RU":"Сенегал","Short_Name_AR":"السنغال","GlobalID":"558daf3b-1413-4e64-a57e-9135a5dde803"}},{"attributes":{"ADM0_NAME":"SERBIA","DateOfReport":1583712000000,"cum_conf":1,"cum_death":0,"ID":38764,"CENTER_LON":20.81133086,"CENTER_LAT":44.03387222,"ADM0_VIZ_NAME":"Serbia","Short_Name_ZH":"塞尔维亚","Short_Name_FR":"Serbie","Short_Name_ES":"Serbia","Short_Name_RU":"Сербия","Short_Name_AR":"صربيا","GlobalID":"f411d740-e9e7-4684-b6f5-c3241896f4eb"}},{"attributes":{"ADM0_NAME":"SINGAPORE","DateOfReport":1583712000000,"cum_conf":160,"cum_death":0,"ID":38765,"CENTER_LON":103.80765359,"CENTER_LAT":1.35118038,"ADM0_VIZ_NAME":"Singapore","Short_Name_ZH":"新加坡","Short_Name_FR":"Singapour","Short_Name_ES":"Singapur","Short_Name_RU":"Сингапур","Short_Name_AR":"سنغافورة","GlobalID":"a465859a-2310-4418-934d-4f1b658353f3"}},{"attributes":{"ADM0_NAME":"SLOVAKIA","DateOfReport":1583712000000,"cum_conf":7,"cum_death":0,"ID":38766,"CENTER_LON":19.49145028,"CENTER_LAT":48.7073588,"ADM0_VIZ_NAME":"Slovakia","Short_Name_ZH":"斯洛伐克","Short_Name_FR":"Slovaquie","Short_Name_ES":"Eslovaquia","Short_Name_RU":"Словакия","Short_Name_AR":"سلوفاكيا","GlobalID":"612d2fb8-2673-456f-a574-4b71d5fa3e7d"}},{"attributes":{"ADM0_NAME":"SLOVENIA","DateOfReport":1583712000000,"cum_conf":23,"cum_death":0,"ID":38767,"CENTER_LON":14.82707444,"CENTER_LAT":46.12355026,"ADM0_VIZ_NAME":"Slovenia","Short_Name_ZH":"斯洛文尼亚","Short_Name_FR":"Slovénie","Short_Name_ES":"Eslovenia","Short_Name_RU":"Словения","Short_Name_AR":"سلوفينيا","GlobalID":"178b7841-f104-4c25-846c-5f4e3fe8c994"}},{"attributes":{"ADM0_NAME":"SOUTH AFRICA","DateOfReport":1583712000000,"cum_conf":7,"cum_death":0,"ID":38768,"CENTER_LON":25.08871199,"CENTER_LAT":-28.99321352,"ADM0_VIZ_NAME":"South Africa","Short_Name_ZH":"南非","Short_Name_FR":"Afrique du Sud","Short_Name_ES":"Sudáfrica","Short_Name_RU":"Южная Африка","Short_Name_AR":"جنوب أفريقيا","GlobalID":"100178cd-4492-4900-9724-56c77c6cc382"}},{"attributes":{"ADM0_NAME":"SPAIN","DateOfReport":1583712000000,"cum_conf":1024,"cum_death":28,"ID":38769,"CENTER_LON":-3.64931118,"CENTER_LAT":40.22749596,"ADM0_VIZ_NAME":"Spain","Short_Name_ZH":"西班牙","Short_Name_FR":"Espagne","Short_Name_ES":"España","Short_Name_RU":"Испания","Short_Name_AR":"إسبانيا","GlobalID":"bce82322-d6eb-4ec4-ac47-2234b9fff837"}},{"attributes":{"ADM0_NAME":"SRI LANKA","DateOfReport":1583712000000,"cum_conf":1,"cum_death":0,"ID":38770,"CENTER_LON":80.70426262,"CENTER_LAT":7.61236243,"ADM0_VIZ_NAME":"Sri Lanka","Short_Name_ZH":"斯里兰卡","Short_Name_FR":"Sri Lanka","Short_Name_ES":"Sri Lanka","Short_Name_RU":"Шри-Ланка","Short_Name_AR":"سري لانكا","GlobalID":"67d5501b-8e66-44d8-b991-e837df1421c0"}},{"attributes":{"ADM0_NAME":"SWEDEN","DateOfReport":1583712000000,"cum_conf":248,"cum_death":0,"ID":38771,"CENTER_LON":16.74115526,"CENTER_LAT":62.78774226,"ADM0_VIZ_NAME":"Sweden","Short_Name_ZH":"瑞典","Short_Name_FR":"Suède","Short_Name_ES":"Suecia","Short_Name_RU":"Швеция","Short_Name_AR":"السويد","GlobalID":"ccbd0ad6-fde0-400e-91c9-56f40e4a622e"}},{"attributes":{"ADM0_NAME":"SWITZERLAND","DateOfReport":1583712000000,"cum_conf":332,"cum_death":2,"ID":38772,"CENTER_LON":8.23458738,"CENTER_LAT":46.8025828,"ADM0_VIZ_NAME":"Switzerland","Short_Name_ZH":"瑞士","Short_Name_FR":"Suisse","Short_Name_ES":"Suiza","Short_Name_RU":"Швейцария","Short_Name_AR":"سويسرا","GlobalID":"064de1bf-de80-4cd0-9bd4-ec44b79ecdac"}},{"attributes":{"ADM0_NAME":"THAILAND","DateOfReport":1583712000000,"cum_conf":53,"cum_death":1,"ID":38773,"CENTER_LON":101.01490782,"CENTER_LAT":15.11989876,"ADM0_VIZ_NAME":"Thailand","Short_Name_ZH":"泰国","Short_Name_FR":"Thaïlande","Short_Name_ES":"Tailandia","Short_Name_RU":"Таиланд","Short_Name_AR":"تايلند","GlobalID":"256be381-dd6d-408d-bd73-2e9bcf05c088"}},{"attributes":{"ADM0_NAME":"TOGO","DateOfReport":1583712000000,"cum_conf":1,"cum_death":0,"ID":38774,"CENTER_LON":0.97584596,"CENTER_LAT":8.53491037,"ADM0_VIZ_NAME":"Togo","Short_Name_ZH":"多哥","Short_Name_FR":"Togo","Short_Name_ES":"Togo (el)","Short_Name_RU":"Того","Short_Name_AR":"توغو","GlobalID":"43dd1f98-7ee9-4df5-90bb-d1e6d1b2908f"}},{"attributes":{"ADM0_NAME":"TUNISIA","DateOfReport":1583712000000,"cum_conf":2,"cum_death":0,"ID":38775,"CENTER_LON":9.56156142,"CENTER_LAT":34.11124917,"ADM0_VIZ_NAME":"Tunisia","Short_Name_ZH":"突尼斯","Short_Name_FR":"Tunisie","Short_Name_ES":"Túnez","Short_Name_RU":"Тунис","Short_Name_AR":"تونس","GlobalID":"fb34a9a6-3063-419b-87ff-c3dad04ab5bd"}},{"attributes":{"ADM0_NAME":"UKRAINE","DateOfReport":1583712000000,"cum_conf":1,"cum_death":0,"ID":38776,"CENTER_LON":31.38784552,"CENTER_LAT":49.01609429,"ADM0_VIZ_NAME":"Ukraine","Short_Name_ZH":"乌克兰","Short_Name_FR":"Ukraine","Short_Name_ES":"Ucrania","Short_Name_RU":"Украина","Short_Name_AR":"أوكرانيا","GlobalID":"6e880162-b8ce-4078-9a22-f41068e63b40"}},{"attributes":{"ADM0_NAME":"UNITED ARAB EMIRATES","DateOfReport":1583712000000,"cum_conf":59,"cum_death":0,"ID":38777,"CENTER_LON":54.33219878,"CENTER_LAT":23.91267254,"ADM0_VIZ_NAME":"United Arab Emirates","Short_Name_ZH":"阿拉伯联合酋长国","Short_Name_FR":"Émirats arabes unis","Short_Name_ES":"Emiratos Árabes Unidos","Short_Name_RU":"Объединенные Арабские Эмираты","Short_Name_AR":"الإمارات العربية المتحدة","GlobalID":"1f9a48f9-191e-4e99-9011-7bcf8b04cc05"}},{"attributes":{"ADM0_NAME":"UNITED KINGDOM","DateOfReport":1583712000000,"cum_conf":373,"cum_death":6,"ID":38778,"CENTER_LON":-2.90049476,"CENTER_LAT":54.1601792,"ADM0_VIZ_NAME":"United Kingdom","Short_Name_ZH":"大不列颠及北爱尔兰联合王国","Short_Name_FR":"Royaume-Uni de Grande-Bretagne et d'Irlande du Nord","Short_Name_ES":"Reino Unido de Gran Bretaña e Irlanda del Norte","Short_Name_RU":"Соединенное Королевство Великобритании и Северной Ирландии","Short_Name_AR":"المملكة المتحدة لبريطانيا العظمى وآيرلندا الشمالية ","GlobalID":"f0395b3a-b826-4af3-9ff7-dfd0dc2527c2"}},{"attributes":{"ADM0_NAME":"UNITED STATES OF AMERICA","DateOfReport":1583712000000,"cum_conf":472,"cum_death":19,"ID":38779,"CENTER_LON":-112.49356447,"CENTER_LAT":45.6954816,"ADM0_VIZ_NAME":"United States of America","Short_Name_ZH":"美利坚合众国","Short_Name_FR":"États-Unis d'Amérique","Short_Name_ES":"Estados Unidos de América","Short_Name_RU":"Соединенные Штаты Америки","Short_Name_AR":"الولايات المتحدة الأمريكية ","GlobalID":"442ddb5c-04cf-4e41-9e07-b9b53147e53c"}},{"attributes":{"ADM0_NAME":"VIET NAM","DateOfReport":1583712000000,"cum_conf":31,"cum_death":0,"ID":38780,"CENTER_LON":106.30403531,"CENTER_LAT":16.65160342,"ADM0_VIZ_NAME":"Viet Nam","Short_Name_ZH":"越南","Short_Name_FR":"Viet Nam","Short_Name_ES":"Viet Nam","Short_Name_RU":"Вьетнам","Short_Name_AR":"فييت نام","GlobalID":"ec8a735a-87e7-4b77-b724-c840942f8862"}},{"attributes":{"ADM0_NAME":"GUERNSEY","DateOfReport":1583712000000,"cum_conf":1,"cum_death":0,"ID":38781,"CENTER_LON":-2.57582282,"CENTER_LAT":49.4590463,"ADM0_VIZ_NAME":"Guernsey","Short_Name_ZH":"Guernsey","Short_Name_FR":null,"Short_Name_ES":null,"Short_Name_RU":null,"Short_Name_AR":null,"GlobalID":"0977e105-4aba-48ea-8187-376f00b89989"}},{"attributes":{"ADM0_NAME":"PANAMA","DateOfReport":1583712000000,"cum_conf":1,"cum_death":0,"ID":38782,"CENTER_LON":-80.10906884,"CENTER_LAT":8.50544318,"ADM0_VIZ_NAME":"Panama","Short_Name_ZH":"巴拿马","Short_Name_FR":"Panama","Short_Name_ES":"Panamá","Short_Name_RU":"Панама","Short_Name_AR":"بنما","GlobalID":"2e29ba3e-99e6-4be7-9a62-8fd308519469"}},{"attributes":{"ADM0_NAME":"MONGOLIA","DateOfReport":1583712000000,"cum_conf":1,"cum_death":0,"ID":38783,"CENTER_LON":103.08303108,"CENTER_LAT":46.83520872,"ADM0_VIZ_NAME":"Mongolia","Short_Name_ZH":"蒙古","Short_Name_FR":"Mongolie","Short_Name_ES":"Mongolia","Short_Name_RU":"Монголия","Short_Name_AR":"منغوليا","GlobalID":"b211c4dd-5149-4c5f-a0ae-e684f6207770"}},{"attributes":{"ADM0_NAME":"BRUNEI DARUSSALAM","DateOfReport":1583712000000,"cum_conf":1,"cum_death":0,"ID":38784,"CENTER_LON":114.76132088,"CENTER_LAT":4.52147838,"ADM0_VIZ_NAME":"Brunei Darussalam","Short_Name_ZH":"文莱达鲁萨兰国","Short_Name_FR":"Brunéi Darussalam","Short_Name_ES":"Brunei Darussalam","Short_Name_RU":"Бруней-Даруссалам ","Short_Name_AR":"بروني دار السلام","GlobalID":"8724df32-6c7d-4c71-a278-29fba4648a26"}},{"attributes":{"ADM0_NAME":"CYPRUS","DateOfReport":1583712000000,"cum_conf":2,"cum_death":0,"ID":38785,"CENTER_LON":33.21863708,"CENTER_LAT":35.04299175,"ADM0_VIZ_NAME":"Cyprus","Short_Name_ZH":"塞浦路斯","Short_Name_FR":"Chypre","Short_Name_ES":"Chipre","Short_Name_RU":"Кипр","Short_Name_AR":"قبرص","GlobalID":"caa5800e-1400-4ab2-a589-96d75950bed9"}}]}