{"objectIdFieldName":"ID","uniqueIdField":{"name":"ID","isSystemMaintained":true},"globalIdFieldName":"GlobalID","geometryType":"esriGeometryPolygon","spatialReference":{"wkid":4326,"latestWkid":4326},"fields":[{"name":"ADM0_NAME","type":"esriFieldTypeString","alias":"ADM0_NAME","sqlType":"sqlTypeOther","length":255,"domain":null,"defaultValue":null},{"name":"DateOfReport","type":"esriFieldTypeDate","alias":"DateOfReport","sqlType":"sqlTypeOther","length":8,"domain":null,"defaultValue":null},{"name":"cum_conf","type":"esriFieldTypeInteger","alias":"cum_conf","sqlType":"sqlTypeOther","domain":null,"defaultValue":null},{"name":"cum_death","type":"esriFieldTypeInteger","alias":"cum_death","sqlType":"sqlTypeOther","domain":null,"defaultValue":null},{"name":"ID","type":"esriFieldTypeOID","alias":"ID","sqlType":"sqlTypeOther","domain":null,"defaultValue":null},{"name":"CENTER_LON","type":"esriFieldTypeDouble","alias":"CENTER_LON","sqlType":"sqlTypeOther","domain":null,"defaultValue":null},{"name":"CENTER_LAT","type":"esriFieldTypeDouble","alias":"CENTER_LAT","sqlType":"sqlTypeOther","domain":null,"defaultValue":null},{"name":"ADM0_VIZ_NAME","type":"esriFieldTypeString","alias":"ADM0_VIZ_NAME","sqlType":"sqlTypeOther","length":255,"domain":null,"defaultValue":null},{"name":"Short_Name_ZH","type":"esriFieldTypeString","alias":"Short_Name_ZH","sqlType":"sqlTypeOther","length":255,"domain":null,"defaultValue":null},{"name":"Short_Name_FR","type":"esriFieldTypeString","alias":"Short_Name_FR","sqlType":"sqlTypeOther","length":255,"domain":null,"defaultValue":null},{"name":"Short_Name_ES","type":"esriFieldTypeString","alias":"Short_Name_ES","sqlType":"sqlTypeOther","length":255,"domain":null,"defaultValue":null},{"name":"Short_Name_RU","type":"esriFieldTypeString","alias":"Short_Name_RU","sqlType":"sqlTypeOther","length":255,"domain":null,"defaultValue":null},{"name":"Short_Name_AR","type":"esriFieldTypeString","alias":"Short_Name_AR","sqlType":"sqlTypeOther","length":255,"domain":null,"defaultValue":null},{"name":"GlobalID","type":"esriFieldTypeGlobalID","alias":"GlobalID","sqlType":"sqlTypeOther","length":38,"domain":null}],"features":[{"attributes":{"ADM0_NAME":"CHINA","DateOfReport":1584316800000,"cum_conf":81116,"cum_death":3231,"ID":40629,"CENTER_LON":103.8934731,"CENTER_LAT":36.51870146,"ADM0_VIZ_NAME":"China","Short_Name_ZH":"中国","Short_Name_FR":"Chine","Short_Name_ES":"China","Short_Name_RU":"Китай","Short_Name_AR":"الصين","GlobalID":"af9cb1cf-638f-4a5c-9e68-e057d8c27a56"}},{"attributes":{"ADM0_NAME":"Afghanistan","DateOfReport":1584316800000,"cum_conf":21,"cum_death":0,"ID":40630,"CENTER_LON":66.02652977,"CENTER_LAT":33.83890116,"ADM0_VIZ_NAME":"Afghanistan","Short_Name_ZH":"阿富汗","Short_Name_FR":"Afghanistan","Short_Name_ES":"Afganistán","Short_Name_RU":"Афганистан","Short_Name_AR":"أفغانستان","GlobalID":"94625f0b-fb34-424d-8b24-523336fded92"}},{"attributes":{"ADM0_NAME":"Albania","DateOfReport":1584316800000,"cum_conf":51,"cum_death":1,"ID":40631,"CENTER_LON":20.06917817,"CENTER_LAT":41.14595803,"ADM0_VIZ_NAME":"Albania","Short_Name_ZH":"阿尔巴尼亚","Short_Name_FR":"Albanie","Short_Name_ES":"Albania","Short_Name_RU":"Албания","Short_Name_AR":"ألبانيا","GlobalID":"e39eec9a-5b78-412e-9d3e-f520089504d4"}},{"attributes":{"ADM0_NAME":"Algeria","DateOfReport":1584316800000,"cum_conf":49,"cum_death":4,"ID":40632,"CENTER_LON":2.63236595,"CENTER_LAT":28.16335741,"ADM0_VIZ_NAME":"Algeria","Short_Name_ZH":"阿尔及利亚","Short_Name_FR":"Algérie","Short_Name_ES":"Argelia","Short_Name_RU":"Алжир","Short_Name_AR":"الجزائر","GlobalID":"70bc07d7-272c-4d6f-aec2-0ad48eed876b"}},{"attributes":{"ADM0_NAME":"Andorra","DateOfReport":1584316800000,"cum_conf":14,"cum_death":0,"ID":40633,"CENTER_LON":1.57568833,"CENTER_LAT":42.54858297,"ADM0_VIZ_NAME":"Andorra","Short_Name_ZH":"安道尔","Short_Name_FR":"Andorre","Short_Name_ES":"Andorra","Short_Name_RU":"Андорра","Short_Name_AR":"أندورا","GlobalID":"5a71df61-70bd-447e-a445-eb70f9fcc0df"}},{"attributes":{"ADM0_NAME":"Antigua and Barbuda","DateOfReport":1584316800000,"cum_conf":1,"cum_death":0,"ID":40634,"CENTER_LON":-61.79112759,"CENTER_LAT":17.280137,"ADM0_VIZ_NAME":"Antigua and Barbuda","Short_Name_ZH":"安提瓜和巴布达","Short_Name_FR":"Antigua-et-Barbuda","Short_Name_ES":"Antigua y Barbuda","Short_Name_RU":"Антигуа и Барбуда","Short_Name_AR":"أنتيغوا وبربودا","GlobalID":"edf0431a-3ee0-4c32-8965-456b9a27dbc8"}},{"attributes":{"ADM0_NAME":"Argentina","DateOfReport":1584316800000,"cum_conf":56,"cum_death":2,"ID":40635,"CENTER_LON":-65.16748474,"CENTER_LAT":-35.37667253,"ADM0_VIZ_NAME":"Argentina","Short_Name_ZH":"阿根廷 ","Short_Name_FR":"Argentine","Short_Name_ES":"Argentina","Short_Name_RU":"Аргентина","Short_Name_AR":"الأرجنتين","GlobalID":"768a3f82-5507-4779-9d40-e47d857885f0"}},{"attributes":{"ADM0_NAME":"Armenia","DateOfReport":1584316800000,"cum_conf":30,"cum_death":0,"ID":40636,"CENTER_LON":44.94793424,"CENTER_LAT":40.28641688,"ADM0_VIZ_NAME":"Armenia","Short_Name_ZH":"亚美尼亚","Short_Name_FR":"Arménie","Short_Name_ES":"Armenia","Short_Name_RU":"Армения","Short_Name_AR":"أرمينيا","GlobalID":"fb96d505-7855-4a9d-9d06-094d9850d3e7"}},{"attributes":{"ADM0_NAME":"Australia","DateOfReport":1584316800000,"cum_conf":336,"cum_death":5,"ID":40637,"CENTER_LON":134.49097595,"CENTER_LAT":-25.73326023,"ADM0_VIZ_NAME":"Australia","Short_Name_ZH":"澳大利亚","Short_Name_FR":"Australie","Short_Name_ES":"Australia","Short_Name_RU":"Австралия","Short_Name_AR":"أستراليا","GlobalID":"157c257a-5d75-482f-8b0b-c9d66c6afbf8"}},{"attributes":{"ADM0_NAME":"Austria","DateOfReport":1584316800000,"cum_conf":959,"cum_death":1,"ID":40638,"CENTER_LON":14.13998831,"CENTER_LAT":47.59295768,"ADM0_VIZ_NAME":"Austria","Short_Name_ZH":"奥地利","Short_Name_FR":"Autriche","Short_Name_ES":"Austria","Short_Name_RU":"Австрия","Short_Name_AR":"النمسا","GlobalID":"082d1287-cb57-4db0-b386-1f3be47bc9f1"}},{"attributes":{"ADM0_NAME":"Azerbaijan","DateOfReport":1584316800000,"cum_conf":21,"cum_death":0,"ID":40639,"CENTER_LON":47.53232681,"CENTER_LAT":40.2922195,"ADM0_VIZ_NAME":"Azerbaijan","Short_Name_ZH":"阿塞拜疆","Short_Name_FR":"Azerbaïdjan","Short_Name_ES":"Azerbaiyán","Short_Name_RU":"Азербайджан","Short_Name_AR":"أذربيجان","GlobalID":"bfbf2b92-68ac-490b-b875-adec98edecbd"}},{"attributes":{"ADM0_NAME":"Bahrain","DateOfReport":1584316800000,"cum_conf":221,"cum_death":1,"ID":40640,"CENTER_LON":50.56248915,"CENTER_LAT":26.01947392,"ADM0_VIZ_NAME":"Bahrain","Short_Name_ZH":"巴林","Short_Name_FR":"Bahreïn","Short_Name_ES":"Bahrein","Short_Name_RU":"Бахрейн","Short_Name_AR":"البحرين","GlobalID":"3a61b2cd-2b52-480c-a1f4-f8bff195f2a5"}},{"attributes":{"ADM0_NAME":"Bangladesh","DateOfReport":1584316800000,"cum_conf":8,"cum_death":0,"ID":40641,"CENTER_LON":90.27092576,"CENTER_LAT":23.8330072,"ADM0_VIZ_NAME":"Bangladesh","Short_Name_ZH":"孟加拉国","Short_Name_FR":"Bangladesh","Short_Name_ES":"Bangladesh","Short_Name_RU":"Бангладеш","Short_Name_AR":"بنغلاديش","GlobalID":"ddac888d-d8d8-4781-ad46-032fea008995"}},{"attributes":{"ADM0_NAME":"Belarus","DateOfReport":1584316800000,"cum_conf":36,"cum_death":0,"ID":40642,"CENTER_LON":28.04696448,"CENTER_LAT":53.54021951,"ADM0_VIZ_NAME":"Belarus","Short_Name_ZH":"白俄罗斯","Short_Name_FR":"Bélarus","Short_Name_ES":"Belarús","Short_Name_RU":"Беларусь","Short_Name_AR":"بيلاروس","GlobalID":"a653484d-763a-4a79-8164-396ec46ca9ff"}},{"attributes":{"ADM0_NAME":"Belgium","DateOfReport":1584316800000,"cum_conf":1085,"cum_death":5,"ID":40643,"CENTER_LON":4.66434841,"CENTER_LAT":50.64295176,"ADM0_VIZ_NAME":"Belgium","Short_Name_ZH":"比利时","Short_Name_FR":"Belgique","Short_Name_ES":"Bélgica","Short_Name_RU":"Бельгия","Short_Name_AR":"بلجيكا","GlobalID":"1bad16ee-8bcc-4cbc-bcd7-448592c2f9ce"}},{"attributes":{"ADM0_NAME":"Bhutan","DateOfReport":1584316800000,"cum_conf":1,"cum_death":0,"ID":40644,"CENTER_LON":90.42943275,"CENTER_LAT":27.41546082,"ADM0_VIZ_NAME":"Bhutan","Short_Name_ZH":"不丹","Short_Name_FR":"Bhoutan","Short_Name_ES":"Bhután","Short_Name_RU":"Бутан","Short_Name_AR":"بوتان","GlobalID":"ff767e5e-4ac9-4d4a-bff7-20a9c8a8cf5e"}},{"attributes":{"ADM0_NAME":"Bolivia (Plurinational State of)","DateOfReport":1584316800000,"cum_conf":11,"cum_death":0,"ID":40645,"CENTER_LON":-64.67054847,"CENTER_LAT":-16.71510989,"ADM0_VIZ_NAME":"Bolivia (Plurinational State of)","Short_Name_ZH":"玻利维亚（多民族国）","Short_Name_FR":"Bolivie (État plurinational de)","Short_Name_ES":"Bolivia (Estado Plurinacional de)  ","Short_Name_RU":"Боливия (Многонациональное Государство)","Short_Name_AR":"بوليفيا (دولة - المتعددة القوميات)","GlobalID":"f7b42554-9147-4fc2-a448-79d63427030a"}},{"attributes":{"ADM0_NAME":"Bosnia and Herzegovina","DateOfReport":1584316800000,"cum_conf":21,"cum_death":0,"ID":40646,"CENTER_LON":17.78861095,"CENTER_LAT":44.16643966,"ADM0_VIZ_NAME":"Bosnia and Herzegovina","Short_Name_ZH":"波斯尼亚和黑塞哥维那","Short_Name_FR":"Bosnie-Herzégovine","Short_Name_ES":"Bosnia y Herzegovina","Short_Name_RU":"Босния и Герцеговина","Short_Name_AR":"البوسنة والهرسك","GlobalID":"125894d1-f837-4a58-9e15-04f02f6bb64a"}},{"attributes":{"ADM0_NAME":"Brazil","DateOfReport":1584316800000,"cum_conf":200,"cum_death":0,"ID":40647,"CENTER_LON":-53.08875436,"CENTER_LAT":-10.7722828,"ADM0_VIZ_NAME":"Brazil","Short_Name_ZH":"巴西","Short_Name_FR":"Brésil","Short_Name_ES":"Brasil","Short_Name_RU":"Бразилия","Short_Name_AR":"البرازيل","GlobalID":"646e22cc-6622-4029-a928-91e37ed2640e"}},{"attributes":{"ADM0_NAME":"Brunei Darussalam","DateOfReport":1584316800000,"cum_conf":50,"cum_death":0,"ID":40648,"CENTER_LON":114.76132088,"CENTER_LAT":4.52147838,"ADM0_VIZ_NAME":"Brunei Darussalam","Short_Name_ZH":"文莱达鲁萨兰国","Short_Name_FR":"Brunéi Darussalam","Short_Name_ES":"Brunei Darussalam","Short_Name_RU":"Бруней-Даруссалам ","Short_Name_AR":"بروني دار السلام","GlobalID":"09ce441a-3dbe-4b9a-93cd-c3bbb65f5ada"}},{"attributes":{"ADM0_NAME":"Bulgaria","DateOfReport":1584316800000,"cum_conf":62,"cum_death":2,"ID":40649,"CENTER_LON":25.23475756,"CENTER_LAT":42.76032141,"ADM0_VIZ_NAME":"Bulgaria","Short_Name_ZH":"保加利亚","Short_Name_FR":"Bulgarie","Short_Name_ES":"Bulgaria","Short_Name_RU":"Болгария","Short_Name_AR":"بلغاريا","GlobalID":"cd5365e3-1fd6-4817-a07a-d1adb500aaf8"}},{"attributes":{"ADM0_NAME":"Burkina Faso","DateOfReport":1584316800000,"cum_conf":15,"cum_death":0,"ID":40650,"CENTER_LON":-1.73983521,"CENTER_LAT":12.27793715,"ADM0_VIZ_NAME":"Burkina Faso","Short_Name_ZH":"布基纳法索","Short_Name_FR":"Burkina Faso","Short_Name_ES":"Burkina Faso","Short_Name_RU":"Буркина-Фасо","Short_Name_AR":"بوركينا فاسو","GlobalID":"0a941464-9157-4c43-bb42-d56fc0658a30"}},{"attributes":{"ADM0_NAME":"Cambodia","DateOfReport":1584316800000,"cum_conf":12,"cum_death":0,"ID":40651,"CENTER_LON":104.92123962,"CENTER_LAT":12.71402994,"ADM0_VIZ_NAME":"Cambodia","Short_Name_ZH":"柬埔寨","Short_Name_FR":"Cambodge","Short_Name_ES":"Camboya","Short_Name_RU":"Камбоджа","Short_Name_AR":"كمبوديا","GlobalID":"017a3787-e6c3-4465-a1d3-0b91032c11e0"}},{"attributes":{"ADM0_NAME":"Cameroon","DateOfReport":1584316800000,"cum_conf":5,"cum_death":0,"ID":40652,"CENTER_LON":12.7432535,"CENTER_LAT":5.68580436,"ADM0_VIZ_NAME":"Cameroon","Short_Name_ZH":"喀麦隆","Short_Name_FR":"Cameroun","Short_Name_ES":"Camerún","Short_Name_RU":"Камерун","Short_Name_AR":"الكاميرون","GlobalID":"bc33f5ea-dfb4-4484-bd2c-aee9802d1e12"}},{"attributes":{"ADM0_NAME":"Canada","DateOfReport":1584316800000,"cum_conf":304,"cum_death":1,"ID":40653,"CENTER_LON":-98.26094698,"CENTER_LAT":61.3930667,"ADM0_VIZ_NAME":"Canada","Short_Name_ZH":"加拿大","Short_Name_FR":"Canada","Short_Name_ES":"Canadá","Short_Name_RU":"Канада","Short_Name_AR":"كندا","GlobalID":"418dc311-219a-4e29-b8dc-90c0259f4ffc"}},{"attributes":{"ADM0_NAME":"Cayman Islands","DateOfReport":1584316800000,"cum_conf":1,"cum_death":1,"ID":40654,"CENTER_LON":-80.82909683,"CENTER_LAT":19.431525,"ADM0_VIZ_NAME":"Cayman Islands","Short_Name_ZH":null,"Short_Name_FR":null,"Short_Name_ES":null,"Short_Name_RU":null,"Short_Name_AR":null,"GlobalID":"7137421e-98fc-4571-b412-116cf13c40e6"}},{"attributes":{"ADM0_NAME":"Central African Republic","DateOfReport":1584316800000,"cum_conf":1,"cum_death":0,"ID":40655,"CENTER_LON":20.48278081,"CENTER_LAT":6.57145342,"ADM0_VIZ_NAME":"Central African Republic","Short_Name_ZH":"中非共和国","Short_Name_FR":"République centrafricaine","Short_Name_ES":"República Centroafricana","Short_Name_RU":"Центральноафриканская Республика","Short_Name_AR":"جمهورية أفريقيا الوسطى","GlobalID":"9ab81fba-1d76-4d50-b705-3cd3896b35d9"}},{"attributes":{"ADM0_NAME":"Chile","DateOfReport":1584316800000,"cum_conf":75,"cum_death":0,"ID":40656,"CENTER_LON":-71.38009385,"CENTER_LAT":-37.86811922,"ADM0_VIZ_NAME":"Chile","Short_Name_ZH":"智利","Short_Name_FR":"Chili","Short_Name_ES":"Chile","Short_Name_RU":"Чили","Short_Name_AR":"شيلي","GlobalID":"56bfe08a-be7c-4d64-ad91-29f6daa46b85"}},{"attributes":{"ADM0_NAME":"Colombia","DateOfReport":1584316800000,"cum_conf":34,"cum_death":0,"ID":40657,"CENTER_LON":-73.07576335,"CENTER_LAT":3.90037401,"ADM0_VIZ_NAME":"Colombia","Short_Name_ZH":"哥伦比亚","Short_Name_FR":"Colombie","Short_Name_ES":"Colombia","Short_Name_RU":"Колумбия","Short_Name_AR":"كولومبيا","GlobalID":"0eea4571-96e0-47df-9493-2e391f30de50"}},{"attributes":{"ADM0_NAME":"Congo","DateOfReport":1584316800000,"cum_conf":1,"cum_death":0,"ID":40658,"CENTER_LON":15.22427459,"CENTER_LAT":-0.84006603,"ADM0_VIZ_NAME":"Congo","Short_Name_ZH":"刚果","Short_Name_FR":"Congo","Short_Name_ES":"Congo (el)","Short_Name_RU":"Конго","Short_Name_AR":"الكونغو","GlobalID":"92ccaa0a-31b9-44ac-9af8-44cd6a9c5d9c"}},{"attributes":{"ADM0_NAME":"Costa Rica","DateOfReport":1584316800000,"cum_conf":35,"cum_death":0,"ID":40659,"CENTER_LON":-84.18903867,"CENTER_LAT":9.97052135,"ADM0_VIZ_NAME":"Costa Rica","Short_Name_ZH":"哥斯达黎加","Short_Name_FR":"Costa Rica","Short_Name_ES":"Costa Rica","Short_Name_RU":"Коста-Рика","Short_Name_AR":"كوستاريكا","GlobalID":"d30bed62-1bd8-4efb-9da9-d6f31fc218d9"}},{"attributes":{"ADM0_NAME":"Croatia","DateOfReport":1584316800000,"cum_conf":49,"cum_death":0,"ID":40660,"CENTER_LON":16.40934249,"CENTER_LAT":45.04363696,"ADM0_VIZ_NAME":"Croatia","Short_Name_ZH":"克罗地亚","Short_Name_FR":"Croatie","Short_Name_ES":"Croacia","Short_Name_RU":"Хорватия","Short_Name_AR":"كرواتيا","GlobalID":"d1bffa34-333e-4728-9c12-3029836a2a7b"}},{"attributes":{"ADM0_NAME":"Cuba","DateOfReport":1584316800000,"cum_conf":4,"cum_death":0,"ID":40661,"CENTER_LON":-79.0381998,"CENTER_LAT":21.62142096,"ADM0_VIZ_NAME":"Cuba","Short_Name_ZH":"古巴","Short_Name_FR":"Cuba","Short_Name_ES":"Cuba","Short_Name_RU":"Куба","Short_Name_AR":"كوبا","GlobalID":"b1c9bede-23a1-45e9-82a7-abc99e93e23a"}},{"attributes":{"ADM0_NAME":"Curacao","DateOfReport":1584316800000,"cum_conf":2,"cum_death":0,"ID":40662,"CENTER_LON":-68.96749055,"CENTER_LAT":12.18779752,"ADM0_VIZ_NAME":"Curacao","Short_Name_ZH":null,"Short_Name_FR":null,"Short_Name_ES":null,"Short_Name_RU":null,"Short_Name_AR":null,"GlobalID":"c7b45026-0db0-447e-a12d-eafbc050f92a"}},{"attributes":{"ADM0_NAME":"Cyprus","DateOfReport":1584316800000,"cum_conf":33,"cum_death":0,"ID":40663,"CENTER_LON":33.21863708,"CENTER_LAT":35.04299175,"ADM0_VIZ_NAME":"Cyprus","Short_Name_ZH":"塞浦路斯","Short_Name_FR":"Chypre","Short_Name_ES":"Chipre","Short_Name_RU":"Кипр","Short_Name_AR":"قبرص","GlobalID":"0a913ec1-a91f-4049-addb-ccd40813d351"}},{"attributes":{"ADM0_NAME":"Czechia","DateOfReport":1584316800000,"cum_conf":298,"cum_death":0,"ID":40664,"CENTER_LON":15.33833995,"CENTER_LAT":49.74303614,"ADM0_VIZ_NAME":"Czechia","Short_Name_ZH":"捷克","Short_Name_FR":"Tchéquie","Short_Name_ES":"Chequia","Short_Name_RU":"Чехия","Short_Name_AR":"تشيكيا","GlobalID":"5f6370a7-2868-41f3-a9eb-76ba0326acf4"}},{"attributes":{"ADM0_NAME":"Democratic Republic of the Congo","DateOfReport":1584316800000,"cum_conf":2,"cum_death":0,"ID":40665,"CENTER_LON":23.65431545,"CENTER_LAT":-2.87622576,"ADM0_VIZ_NAME":"Democratic Republic of the Congo","Short_Name_ZH":"刚果民主共和国","Short_Name_FR":"République démocratique du Congo","Short_Name_ES":"República Democrática del Congo","Short_Name_RU":"Демократическая Республика Конго","Short_Name_AR":"جمهورية الكونغو الديمقراطية ","GlobalID":"a931ed34-089c-45fb-b6bc-ad761c9fa2b5"}},{"attributes":{"ADM0_NAME":"Denmark","DateOfReport":1584316800000,"cum_conf":898,"cum_death":1,"ID":40666,"CENTER_LON":10.05082082,"CENTER_LAT":55.9623328,"ADM0_VIZ_NAME":"Denmark","Short_Name_ZH":"丹麦","Short_Name_FR":"Danemark","Short_Name_ES":"Dinamarca","Short_Name_RU":"Дания","Short_Name_AR":"الدانمرك","GlobalID":"ba04c14a-effc-4815-9d81-1fe6ffa447b7"}},{"attributes":{"ADM0_NAME":"Dominican Republic","DateOfReport":1584316800000,"cum_conf":5,"cum_death":0,"ID":40667,"CENTER_LON":-70.48543447,"CENTER_LAT":18.89309386,"ADM0_VIZ_NAME":"Dominican Republic","Short_Name_ZH":"多米尼加 ","Short_Name_FR":"République dominicaine","Short_Name_ES":"República Dominicana","Short_Name_RU":"Доминиканская Республика","Short_Name_AR":"الجمهورية الدومينيكية","GlobalID":"1f59400a-6c6a-4ef1-a575-8c4cd4573639"}},{"attributes":{"ADM0_NAME":"Ecuador","DateOfReport":1584316800000,"cum_conf":37,"cum_death":2,"ID":40668,"CENTER_LON":-78.78096177,"CENTER_LAT":-1.42528337,"ADM0_VIZ_NAME":"Ecuador","Short_Name_ZH":"厄瓜多尔","Short_Name_FR":"Équateur","Short_Name_ES":"Ecuador","Short_Name_RU":"Эквадор","Short_Name_AR":"إكوادور","GlobalID":"d18bafd0-902f-4e4f-92e1-9e0fdf269a6e"}},{"attributes":{"ADM0_NAME":"Egypt","DateOfReport":1584316800000,"cum_conf":126,"cum_death":2,"ID":40669,"CENTER_LON":29.78210708,"CENTER_LAT":26.5565646,"ADM0_VIZ_NAME":"Egypt","Short_Name_ZH":"埃及","Short_Name_FR":"Égypte","Short_Name_ES":"Egipto","Short_Name_RU":"Египет","Short_Name_AR":"مصر","GlobalID":"25a6c646-ee56-4e7f-9b90-5405022fd530"}},{"attributes":{"ADM0_NAME":"Equatorial Guinea","DateOfReport":1584316800000,"cum_conf":1,"cum_death":0,"ID":40670,"CENTER_LON":10.33849628,"CENTER_LAT":1.7101686,"ADM0_VIZ_NAME":"Equatorial Guinea","Short_Name_ZH":"赤道几内亚","Short_Name_FR":"Guinée équatoriale","Short_Name_ES":"Guinea Ecuatorial","Short_Name_RU":"Экваториальная Гвинея","Short_Name_AR":"غينيا الاستوائية","GlobalID":"d20d351a-9bd9-47dd-a2d4-4a8fa1511ea2"}},{"attributes":{"ADM0_NAME":"Estonia","DateOfReport":1584316800000,"cum_conf":205,"cum_death":0,"ID":40671,"CENTER_LON":25.5257709,"CENTER_LAT":58.67400787,"ADM0_VIZ_NAME":"Estonia","Short_Name_ZH":"爱沙尼亚","Short_Name_FR":"Estonie","Short_Name_ES":"Estonia","Short_Name_RU":"Эстония","Short_Name_AR":"إستونيا","GlobalID":"19c28eca-14bb-40a7-90fd-583016d57235"}},{"attributes":{"ADM0_NAME":"Eswatini","DateOfReport":1584316800000,"cum_conf":1,"cum_death":0,"ID":40672,"CENTER_LON":31.4971888,"CENTER_LAT":-26.56211674,"ADM0_VIZ_NAME":"Eswatini","Short_Name_ZH":"斯威士兰","Short_Name_FR":"Eswatini","Short_Name_ES":"Eswatini","Short_Name_RU":"Эсватини","Short_Name_AR":"إسواتيني","GlobalID":"0db619c7-b3b4-43c6-a665-c620b61291ad"}},{"attributes":{"ADM0_NAME":"Ethiopia","DateOfReport":1584316800000,"cum_conf":4,"cum_death":0,"ID":40673,"CENTER_LON":39.61601894,"CENTER_LAT":8.62613927,"ADM0_VIZ_NAME":"Ethiopia","Short_Name_ZH":"埃塞俄比亚","Short_Name_FR":"Éthiopie","Short_Name_ES":"Etiopía","Short_Name_RU":"Эфиопия","Short_Name_AR":"إثيوبيا","GlobalID":"540f9eeb-f242-40bb-8629-6d9b68c35068"}},{"attributes":{"ADM0_NAME":"Faroe Islands","DateOfReport":1584316800000,"cum_conf":11,"cum_death":0,"ID":40674,"CENTER_LON":-6.86363602,"CENTER_LAT":62.050314,"ADM0_VIZ_NAME":"Faroe Islands","Short_Name_ZH":"Faroe Islands","Short_Name_FR":null,"Short_Name_ES":null,"Short_Name_RU":null,"Short_Name_AR":null,"GlobalID":"95275cf0-9e86-427c-ad6c-e494224e9b37"}},{"attributes":{"ADM0_NAME":"Finland","DateOfReport":1584316800000,"cum_conf":272,"cum_death":0,"ID":40675,"CENTER_LON":26.2588423,"CENTER_LAT":64.49433129,"ADM0_VIZ_NAME":"Finland","Short_Name_ZH":"芬兰","Short_Name_FR":"Finlande","Short_Name_ES":"Finlandia","Short_Name_RU":"Финляндия","Short_Name_AR":"فنلندا","GlobalID":"3709cd75-a882-4d5d-b1a2-b1924c6ffd56"}},{"attributes":{"ADM0_NAME":"France","DateOfReport":1584316800000,"cum_conf":5380,"cum_death":127,"ID":40676,"CENTER_LON":2.55042646,"CENTER_LAT":46.56487403,"ADM0_VIZ_NAME":"France","Short_Name_ZH":"法国","Short_Name_FR":"France","Short_Name_ES":"Francia","Short_Name_RU":"Франция","Short_Name_AR":"فرنسا","GlobalID":"3853e514-7177-4d88-81b5-6c914e06aa6e"}},{"attributes":{"ADM0_NAME":"French Guiana","DateOfReport":1584316800000,"cum_conf":7,"cum_death":0,"ID":40677,"CENTER_LON":-53.24126696,"CENTER_LAT":3.9243882,"ADM0_VIZ_NAME":"French Guiana","Short_Name_ZH":"French Guiana","Short_Name_FR":null,"Short_Name_ES":null,"Short_Name_RU":null,"Short_Name_AR":null,"GlobalID":"4715b907-59c3-4ccb-990d-f90a75fc2eea"}},{"attributes":{"ADM0_NAME":"French Polynesia","DateOfReport":1584316800000,"cum_conf":3,"cum_death":0,"ID":40678,"CENTER_LON":-149.568,"CENTER_LAT":-17.532,"ADM0_VIZ_NAME":"French Polynesia","Short_Name_ZH":null,"Short_Name_FR":null,"Short_Name_ES":null,"Short_Name_RU":null,"Short_Name_AR":null,"GlobalID":"d0d84af1-4d49-4c2f-b7d6-6065d3bf9b0d"}},{"attributes":{"ADM0_NAME":"Gabon","DateOfReport":1584316800000,"cum_conf":1,"cum_death":0,"ID":40679,"CENTER_LON":11.79715762,"CENTER_LAT":-0.59067797,"ADM0_VIZ_NAME":"Gabon","Short_Name_ZH":"加蓬","Short_Name_FR":"Gabon","Short_Name_ES":"Gabón","Short_Name_RU":"Габон","Short_Name_AR":"غابون","GlobalID":"48e309e9-0fba-4ba4-a184-d6719543ccd0"}},{"attributes":{"ADM0_NAME":"Georgia","DateOfReport":1584316800000,"cum_conf":33,"cum_death":0,"ID":40680,"CENTER_LON":43.51757115,"CENTER_LAT":42.17632583,"ADM0_VIZ_NAME":"Georgia","Short_Name_ZH":"格鲁吉亚","Short_Name_FR":"Géorgie","Short_Name_ES":"Georgia","Short_Name_RU":"Грузия","Short_Name_AR":"جورجيا","GlobalID":"1a23513a-3dcc-4b9d-9ba7-e9748c91d04d"}},{"attributes":{"ADM0_NAME":"Germany","DateOfReport":1584316800000,"cum_conf":4838,"cum_death":12,"ID":40681,"CENTER_LON":10.39232967,"CENTER_LAT":51.11015396,"ADM0_VIZ_NAME":"Germany","Short_Name_ZH":"德国","Short_Name_FR":"Allemagne","Short_Name_ES":"Alemania","Short_Name_RU":"Германия","Short_Name_AR":"ألمانيا","GlobalID":"78b59118-4209-4fd7-9bae-4f3afd2b1274"}},{"attributes":{"ADM0_NAME":"Ghana","DateOfReport":1584316800000,"cum_conf":2,"cum_death":0,"ID":40682,"CENTER_LON":-1.20704619,"CENTER_LAT":7.95964382,"ADM0_VIZ_NAME":"Ghana","Short_Name_ZH":"加纳","Short_Name_FR":"Ghana","Short_Name_ES":"Ghana","Short_Name_RU":"Гана","Short_Name_AR":"غانا","GlobalID":"cf77af75-0855-48fe-9a86-0f66a6d62507"}},{"attributes":{"ADM0_NAME":"Gibraltar","DateOfReport":1584316800000,"cum_conf":1,"cum_death":0,"ID":40683,"CENTER_LON":-5.34488893,"CENTER_LAT":36.1381932,"ADM0_VIZ_NAME":"Gibraltar","Short_Name_ZH":"Gibraltar","Short_Name_FR":null,"Short_Name_ES":null,"Short_Name_RU":null,"Short_Name_AR":null,"GlobalID":"612f2f63-d5d1-4b25-a180-745a6ae6d438"}},{"attributes":{"ADM0_NAME":"Greece","DateOfReport":1584316800000,"cum_conf":331,"cum_death":4,"ID":40684,"CENTER_LON":22.9879848,"CENTER_LAT":39.04452874,"ADM0_VIZ_NAME":"Greece","Short_Name_ZH":"希腊","Short_Name_FR":"Grèce","Short_Name_ES":"Grecia","Short_Name_RU":"Греция","Short_Name_AR":"اليونان","GlobalID":"87138530-327a-485b-9f8d-3362425a956d"}},{"attributes":{"ADM0_NAME":"Guadeloupe","DateOfReport":1584316800000,"cum_conf":6,"cum_death":0,"ID":40685,"CENTER_LON":-61.53039242,"CENTER_LAT":16.20126357,"ADM0_VIZ_NAME":"Guadeloupe","Short_Name_ZH":null,"Short_Name_FR":null,"Short_Name_ES":null,"Short_Name_RU":null,"Short_Name_AR":null,"GlobalID":"daf1506d-7ec7-49f1-94f7-8cf7061fb93a"}},{"attributes":{"ADM0_NAME":"Guatemala","DateOfReport":1584316800000,"cum_conf":1,"cum_death":1,"ID":40686,"CENTER_LON":-90.3569493,"CENTER_LAT":15.7023026,"ADM0_VIZ_NAME":"Guatemala","Short_Name_ZH":"危地马拉","Short_Name_FR":"Guatemala","Short_Name_ES":"Guatemala","Short_Name_RU":"Гватемала","Short_Name_AR":"غواتيمالا","GlobalID":"2a916d63-e752-4991-bd16-c1059303b654"}},{"attributes":{"ADM0_NAME":"Guernsey","DateOfReport":1584316800000,"cum_conf":1,"cum_death":0,"ID":40687,"CENTER_LON":-2.57582282,"CENTER_LAT":49.4590463,"ADM0_VIZ_NAME":"Guernsey","Short_Name_ZH":"Guernsey","Short_Name_FR":null,"Short_Name_ES":null,"Short_Name_RU":null,"Short_Name_AR":null,"GlobalID":"7b6a0cde-3afe-4b73-9f26-bb8a80a86805"}},{"attributes":{"ADM0_NAME":"Guinea","DateOfReport":1584316800000,"cum_conf":1,"cum_death":0,"ID":40688,"CENTER_LON":-10.94182542,"CENTER_LAT":10.43854094,"ADM0_VIZ_NAME":"Guinea","Short_Name_ZH":"几内亚","Short_Name_FR":"Guinée","Short_Name_ES":"Guinea","Short_Name_RU":"Гвинея","Short_Name_AR":"غينيا","GlobalID":"80613790-e411-467b-8f37-f79007e741e5"}},{"attributes":{"ADM0_NAME":"Guyana","DateOfReport":1584316800000,"cum_conf":4,"cum_death":1,"ID":40689,"CENTER_LON":-58.97416349,"CENTER_LAT":4.79237827,"ADM0_VIZ_NAME":"Guyana","Short_Name_ZH":"圭亚那","Short_Name_FR":"Guyana","Short_Name_ES":"Guyana","Short_Name_RU":"Гайана","Short_Name_AR":"غيانا","GlobalID":"da1c7a3b-835b-4724-b5a7-0f3a92e07aab"}},{"attributes":{"ADM0_NAME":"Holy See","DateOfReport":1584316800000,"cum_conf":1,"cum_death":0,"ID":40690,"CENTER_LON":12.48571114,"CENTER_LAT":41.89324195,"ADM0_VIZ_NAME":"Holy See","Short_Name_ZH":"Holy See","Short_Name_FR":null,"Short_Name_ES":null,"Short_Name_RU":null,"Short_Name_AR":null,"GlobalID":"b1b14192-2568-419b-a1b6-09cd92276735"}},{"attributes":{"ADM0_NAME":"Honduras","DateOfReport":1584316800000,"cum_conf":2,"cum_death":0,"ID":40691,"CENTER_LON":-86.61965899,"CENTER_LAT":14.81934813,"ADM0_VIZ_NAME":"Honduras","Short_Name_ZH":"洪都拉斯","Short_Name_FR":"Honduras","Short_Name_ES":"Honduras","Short_Name_RU":"Гондурас","Short_Name_AR":"هندوراس","GlobalID":"8b6497fd-c80e-4eef-94dd-ca70573824eb"}},{"attributes":{"ADM0_NAME":"Hungary","DateOfReport":1584316800000,"cum_conf":39,"cum_death":1,"ID":40692,"CENTER_LON":19.41342813,"CENTER_LAT":47.16647906,"ADM0_VIZ_NAME":"Hungary","Short_Name_ZH":"匈牙利","Short_Name_FR":"Hongrie","Short_Name_ES":"Hungría","Short_Name_RU":"Венгрия","Short_Name_AR":"هنغاريا","GlobalID":"f2b10be9-b886-4195-9494-2e1233b132b7"}},{"attributes":{"ADM0_NAME":"Iceland","DateOfReport":1584316800000,"cum_conf":161,"cum_death":0,"ID":40693,"CENTER_LON":-18.6057026,"CENTER_LAT":64.99764998,"ADM0_VIZ_NAME":"Iceland","Short_Name_ZH":"冰岛","Short_Name_FR":"Islande","Short_Name_ES":"Islandia","Short_Name_RU":"Исландия","Short_Name_AR":"آيسلندا","GlobalID":"bf3465d8-739e-45fe-909a-c2a04dd8aece"}},{"attributes":{"ADM0_NAME":"India","DateOfReport":1584316800000,"cum_conf":114,"cum_death":2,"ID":40694,"CENTER_LON":79.6188183,"CENTER_LAT":22.88132057,"ADM0_VIZ_NAME":"India","Short_Name_ZH":"印度","Short_Name_FR":"Inde","Short_Name_ES":"India","Short_Name_RU":"Индия","Short_Name_AR":"الهند","GlobalID":"ddcae98e-97e2-44db-86b3-1a4455a9826a"}},{"attributes":{"ADM0_NAME":"Indonesia","DateOfReport":1584316800000,"cum_conf":134,"cum_death":4,"ID":40695,"CENTER_LON":117.31101692,"CENTER_LAT":-2.22903453,"ADM0_VIZ_NAME":"Indonesia","Short_Name_ZH":"印度尼西亚","Short_Name_FR":"Indonésie","Short_Name_ES":"Indonesia","Short_Name_RU":"Индонезия","Short_Name_AR":"إندونيسيا","GlobalID":"39d1d15a-d0ea-4e30-a1b7-58cbb203eb16"}},{"attributes":{"ADM0_NAME":"International conveyance (Diamond Princess)","DateOfReport":1584316800000,"cum_conf":712,"cum_death":7,"ID":40696,"CENTER_LON":null,"CENTER_LAT":null,"ADM0_VIZ_NAME":"International conveyance (Diamond Princess)","Short_Name_ZH":"International conveyance (Diamond Princess)","Short_Name_FR":null,"Short_Name_ES":null,"Short_Name_RU":null,"Short_Name_AR":null,"GlobalID":"59545d0d-8b4a-46b6-8eb1-e790096695a8"}},{"attributes":{"ADM0_NAME":"Iran (Islamic Republic of)","DateOfReport":1584316800000,"cum_conf":14991,"cum_death":853,"ID":40697,"CENTER_LON":54.30141376,"CENTER_LAT":32.56479959,"ADM0_VIZ_NAME":"Iran (Islamic Republic of)","Short_Name_ZH":"伊朗（伊斯兰共和国）","Short_Name_FR":"Iran (République islamique d')","Short_Name_ES":"Irán (República Islámica del)","Short_Name_RU":"Иран (Исламская Республика)","Short_Name_AR":"إيران (جمهورية - الإسلامية)","GlobalID":"6c2a6881-750f-48be-95a6-65e3fc113c2f"}},{"attributes":{"ADM0_NAME":"Iraq","DateOfReport":1584316800000,"cum_conf":124,"cum_death":9,"ID":40698,"CENTER_LON":43.77224552,"CENTER_LAT":33.04800654,"ADM0_VIZ_NAME":"Iraq","Short_Name_ZH":"伊拉克","Short_Name_FR":"Iraq","Short_Name_ES":"Iraq","Short_Name_RU":"Ирак","Short_Name_AR":"العراق","GlobalID":"ab869d17-a999-49a5-a8d7-ac92942ee36f"}},{"attributes":{"ADM0_NAME":"Ireland","DateOfReport":1584316800000,"cum_conf":169,"cum_death":2,"ID":40699,"CENTER_LON":-8.1515763,"CENTER_LAT":53.17708682,"ADM0_VIZ_NAME":"Ireland","Short_Name_ZH":"爱尔兰","Short_Name_FR":"Irlande","Short_Name_ES":"Irlanda","Short_Name_RU":"Ирландия","Short_Name_AR":"آيرلندا","GlobalID":"8b98574b-345c-41ca-88e2-d323e8bcc65f"}},{"attributes":{"ADM0_NAME":"Israel","DateOfReport":1584316800000,"cum_conf":250,"cum_death":0,"ID":40700,"CENTER_LON":34.96598271,"CENTER_LAT":31.35805652,"ADM0_VIZ_NAME":"Israel","Short_Name_ZH":"以色列","Short_Name_FR":"Israël","Short_Name_ES":"Israel","Short_Name_RU":"Израиль","Short_Name_AR":"إسرائيل","GlobalID":"dc08f496-2835-471e-82f4-b957fe84fe31"}},{"attributes":{"ADM0_NAME":"Italy","DateOfReport":1584316800000,"cum_conf":27980,"cum_death":2158,"ID":40701,"CENTER_LON":12.07165559,"CENTER_LAT":42.79119167,"ADM0_VIZ_NAME":"Italy","Short_Name_ZH":"意大利","Short_Name_FR":"Italie","Short_Name_ES":"Italia","Short_Name_RU":"Италия","Short_Name_AR":"إيطاليا","GlobalID":"a79c82b3-ae7d-4d8e-ac0d-340381cb491b"}},{"attributes":{"ADM0_NAME":"Jamaica","DateOfReport":1584316800000,"cum_conf":10,"cum_death":0,"ID":40702,"CENTER_LON":-77.31975081,"CENTER_LAT":18.15133064,"ADM0_VIZ_NAME":"Jamaica","Short_Name_ZH":"牙买加","Short_Name_FR":"Jamaïque","Short_Name_ES":"Jamaica","Short_Name_RU":"Ямайка","Short_Name_AR":"جامايكا","GlobalID":"0c5b5a26-d72e-4fe5-93c2-f471792c3ab9"}},{"attributes":{"ADM0_NAME":"Japan","DateOfReport":1584316800000,"cum_conf":814,"cum_death":24,"ID":40703,"CENTER_LON":137.97387026,"CENTER_LAT":37.53982621,"ADM0_VIZ_NAME":"Japan","Short_Name_ZH":"日本","Short_Name_FR":"Japon","Short_Name_ES":"Japón","Short_Name_RU":"Япония","Short_Name_AR":"اليابان","GlobalID":"b2cf4a17-2b88-4b14-b8be-38f15591f99a"}},{"attributes":{"ADM0_NAME":"Jersey","DateOfReport":1584316800000,"cum_conf":2,"cum_death":0,"ID":40704,"CENTER_LON":-2.12891773,"CENTER_LAT":49.21949816,"ADM0_VIZ_NAME":"Jersey","Short_Name_ZH":null,"Short_Name_FR":null,"Short_Name_ES":null,"Short_Name_RU":null,"Short_Name_AR":null,"GlobalID":"63675831-2b7c-4a3b-89e9-fd079bda5828"}},{"attributes":{"ADM0_NAME":"Jordan","DateOfReport":1584316800000,"cum_conf":6,"cum_death":0,"ID":40705,"CENTER_LON":36.78694114,"CENTER_LAT":31.25338179,"ADM0_VIZ_NAME":"Jordan","Short_Name_ZH":"约旦","Short_Name_FR":"Jordanie","Short_Name_ES":"Jordania","Short_Name_RU":"Иордания","Short_Name_AR":"الأردن","GlobalID":"619171e9-9a94-485d-b01a-7edb038869ed"}},{"attributes":{"ADM0_NAME":"Kazakhstan","DateOfReport":1584316800000,"cum_conf":6,"cum_death":0,"ID":40706,"CENTER_LON":67.30130018,"CENTER_LAT":48.1600427,"ADM0_VIZ_NAME":"Kazakhstan","Short_Name_ZH":"哈萨克斯坦","Short_Name_FR":"Kazakhstan","Short_Name_ES":"Kazajstán","Short_Name_RU":"Казахстан","Short_Name_AR":"كازاخستان","GlobalID":"ef9e7085-b152-49fb-9faf-a6012d46fe23"}},{"attributes":{"ADM0_NAME":"Kenya","DateOfReport":1584316800000,"cum_conf":3,"cum_death":0,"ID":40707,"CENTER_LON":37.85786442,"CENTER_LAT":0.52978018,"ADM0_VIZ_NAME":"Kenya","Short_Name_ZH":"肯尼亚","Short_Name_FR":"Kenya","Short_Name_ES":"Kenya","Short_Name_RU":"Кения","Short_Name_AR":"كينيا","GlobalID":"008ae372-4c50-4ed0-a875-016e5e533266"}},{"attributes":{"ADM0_NAME":"Kuwait","DateOfReport":1584316800000,"cum_conf":123,"cum_death":0,"ID":40708,"CENTER_LON":47.59355128,"CENTER_LAT":29.34250906,"ADM0_VIZ_NAME":"Kuwait","Short_Name_ZH":"科威特","Short_Name_FR":"Koweït","Short_Name_ES":"Kuwait","Short_Name_RU":"Кувейт","Short_Name_AR":"الكويت","GlobalID":"6680da7e-18c7-41b5-8765-a55dcb23ef71"}},{"attributes":{"ADM0_NAME":"Latvia","DateOfReport":1584316800000,"cum_conf":34,"cum_death":0,"ID":40709,"CENTER_LON":24.92915332,"CENTER_LAT":56.85766939,"ADM0_VIZ_NAME":"Latvia","Short_Name_ZH":"拉脱维亚","Short_Name_FR":"Lettonie","Short_Name_ES":"Letonia","Short_Name_RU":"Латвия","Short_Name_AR":"لاتفيا","GlobalID":"117d7a44-7a6f-4832-9411-d89dca64f683"}},{"attributes":{"ADM0_NAME":"Lebanon","DateOfReport":1584316800000,"cum_conf":99,"cum_death":3,"ID":40710,"CENTER_LON":35.88806123,"CENTER_LAT":33.92039304,"ADM0_VIZ_NAME":"Lebanon","Short_Name_ZH":"黎巴嫩","Short_Name_FR":"Liban","Short_Name_ES":"Líbano","Short_Name_RU":"Ливан","Short_Name_AR":"لبنان","GlobalID":"80be32d2-97a3-4661-8dd0-b370ac718e10"}},{"attributes":{"ADM0_NAME":"Liechtenstein","DateOfReport":1584316800000,"cum_conf":7,"cum_death":0,"ID":40711,"CENTER_LON":9.55526493,"CENTER_LAT":47.15259548,"ADM0_VIZ_NAME":"Liechtenstein","Short_Name_ZH":"Liechtenstein","Short_Name_FR":null,"Short_Name_ES":null,"Short_Name_RU":null,"Short_Name_AR":null,"GlobalID":"03a906be-ed1f-4110-8f32-1b267839a178"}},{"attributes":{"ADM0_NAME":"Lithuania","DateOfReport":1584316800000,"cum_conf":17,"cum_death":0,"ID":40712,"CENTER_LON":23.89683075,"CENTER_LAT":55.33585013,"ADM0_VIZ_NAME":"Lithuania","Short_Name_ZH":"立陶宛","Short_Name_FR":"Lituanie","Short_Name_ES":"Lituania","Short_Name_RU":"Литва","Short_Name_AR":"ليتوانيا","GlobalID":"6f8364ef-f9e9-4423-8432-923dc58b9f71"}},{"attributes":{"ADM0_NAME":"Luxembourg","DateOfReport":1584316800000,"cum_conf":81,"cum_death":1,"ID":40713,"CENTER_LON":6.08754416,"CENTER_LAT":49.77096396,"ADM0_VIZ_NAME":"Luxembourg","Short_Name_ZH":"卢森堡","Short_Name_FR":"Luxembourg","Short_Name_ES":"Luxemburgo","Short_Name_RU":"Люксембург","Short_Name_AR":"لكسمبرغ","GlobalID":"ba767ac5-7a1c-4cfb-bab6-fde13ad53f5f"}},{"attributes":{"ADM0_NAME":"Malaysia","DateOfReport":1584316800000,"cum_conf":553,"cum_death":0,"ID":40714,"CENTER_LON":109.7115743,"CENTER_LAT":3.79382045,"ADM0_VIZ_NAME":"Malaysia","Short_Name_ZH":"马来西亚","Short_Name_FR":"Malaisie","Short_Name_ES":"Malasia","Short_Name_RU":"Малайзия","Short_Name_AR":"ماليزيا","GlobalID":"a264f535-9226-4105-8d90-7a3ebcaee2a3"}},{"attributes":{"ADM0_NAME":"Maldives","DateOfReport":1584316800000,"cum_conf":13,"cum_death":0,"ID":40715,"CENTER_LON":73.25178478,"CENTER_LAT":3.37481932,"ADM0_VIZ_NAME":"Maldives","Short_Name_ZH":"马尔代夫","Short_Name_FR":"Maldives","Short_Name_ES":"Maldivas","Short_Name_RU":"Мальдивские Острова","Short_Name_AR":"ملديف","GlobalID":"3f982c3d-bad9-42c7-b04d-07adc8b85719"}},{"attributes":{"ADM0_NAME":"Malta","DateOfReport":1584316800000,"cum_conf":30,"cum_death":0,"ID":40716,"CENTER_LON":14.40457358,"CENTER_LAT":35.92036651,"ADM0_VIZ_NAME":"Malta","Short_Name_ZH":"马耳他","Short_Name_FR":"Malte","Short_Name_ES":"Malta","Short_Name_RU":"Мальта","Short_Name_AR":"مالطة","GlobalID":"fe9c625c-2829-4420-a50b-25cd182e47a7"}},{"attributes":{"ADM0_NAME":"Martinique","DateOfReport":1584316800000,"cum_conf":15,"cum_death":0,"ID":40717,"CENTER_LON":-61.02147382,"CENTER_LAT":14.65277419,"ADM0_VIZ_NAME":"Martinique","Short_Name_ZH":"Martinique","Short_Name_FR":null,"Short_Name_ES":null,"Short_Name_RU":null,"Short_Name_AR":null,"GlobalID":"60442aea-bb07-46e2-be06-6c5c85439d18"}},{"attributes":{"ADM0_NAME":"Mauritania","DateOfReport":1584316800000,"cum_conf":1,"cum_death":0,"ID":40718,"CENTER_LON":-10.33226041,"CENTER_LAT":20.25990361,"ADM0_VIZ_NAME":"Mauritania","Short_Name_ZH":"毛里塔尼亚","Short_Name_FR":"Mauritanie","Short_Name_ES":"Mauritania","Short_Name_RU":"Мавритания","Short_Name_AR":"موريتانيا","GlobalID":"99c0b52f-2e2c-461c-bc78-a7ae2b36bf4f"}},{"attributes":{"ADM0_NAME":"Mayotte","DateOfReport":1584316800000,"cum_conf":1,"cum_death":0,"ID":40719,"CENTER_LON":45.13926174,"CENTER_LAT":-12.81835006,"ADM0_VIZ_NAME":"Mayotte","Short_Name_ZH":null,"Short_Name_FR":null,"Short_Name_ES":null,"Short_Name_RU":null,"Short_Name_AR":null,"GlobalID":"10ab2b0b-f29d-41a5-89fc-2d2b951a7a23"}},{"attributes":{"ADM0_NAME":"Mexico","DateOfReport":1584316800000,"cum_conf":53,"cum_death":0,"ID":40720,"CENTER_LON":-102.53499093,"CENTER_LAT":23.95092841,"ADM0_VIZ_NAME":"Mexico","Short_Name_ZH":"墨西哥","Short_Name_FR":"Mexique","Short_Name_ES":"México","Short_Name_RU":"Мексика","Short_Name_AR":"المكسيك","GlobalID":"31c2cf08-69f9-46bf-905a-e5c9bbe5abfd"}},{"attributes":{"ADM0_NAME":"Monaco","DateOfReport":1584316800000,"cum_conf":9,"cum_death":0,"ID":40721,"CENTER_LON":7.41201715,"CENTER_LAT":43.75034615,"ADM0_VIZ_NAME":"Monaco","Short_Name_ZH":"摩纳哥","Short_Name_FR":"Monaco","Short_Name_ES":"Mónaco","Short_Name_RU":"Монако","Short_Name_AR":"موناكو","GlobalID":"92bbb5bf-e0fb-422a-bb77-9187164b8200"}},{"attributes":{"ADM0_NAME":"Mongolia","DateOfReport":1584316800000,"cum_conf":1,"cum_death":0,"ID":40722,"CENTER_LON":103.08303108,"CENTER_LAT":46.83520872,"ADM0_VIZ_NAME":"Mongolia","Short_Name_ZH":"蒙古","Short_Name_FR":"Mongolie","Short_Name_ES":"Mongolia","Short_Name_RU":"Монголия","Short_Name_AR":"منغوليا","GlobalID":"248fffcf-2ddc-4dc1-8e49-2ce41ede2322"}},{"attributes":{"ADM0_NAME":"Morocco","DateOfReport":1584316800000,"cum_conf":29,"cum_death":1,"ID":40723,"CENTER_LON":-6.31780295,"CENTER_LAT":31.88355697,"ADM0_VIZ_NAME":"Morocco","Short_Name_ZH":"摩洛哥","Short_Name_FR":"Maroc","Short_Name_ES":"Marruecos","Short_Name_RU":"Марокко","Short_Name_AR":"المغرب","GlobalID":"71d6360a-bfca-4a1b-b610-9ebb4e7470db"}},{"attributes":{"ADM0_NAME":"Namibia","DateOfReport":1584316800000,"cum_conf":2,"cum_death":0,"ID":40724,"CENTER_LON":17.21845028,"CENTER_LAT":-22.13329329,"ADM0_VIZ_NAME":"Namibia","Short_Name_ZH":"纳米比亚","Short_Name_FR":"Namibie","Short_Name_ES":"Namibia","Short_Name_RU":"Намибия","Short_Name_AR":"ناميبيا","GlobalID":"9085a813-e07f-45b5-a180-a8aedd5f3af0"}},{"attributes":{"ADM0_NAME":"Nepal","DateOfReport":1584316800000,"cum_conf":1,"cum_death":0,"ID":40725,"CENTER_LON":83.93851707,"CENTER_LAT":28.25300785,"ADM0_VIZ_NAME":"Nepal","Short_Name_ZH":"尼泊尔","Short_Name_FR":"Népal","Short_Name_ES":"Nepal","Short_Name_RU":"Непал","Short_Name_AR":"نيبال","GlobalID":"f15feb03-f368-4e54-a370-4358966077f3"}},{"attributes":{"ADM0_NAME":"Netherlands","DateOfReport":1584316800000,"cum_conf":1413,"cum_death":24,"ID":40726,"CENTER_LON":5.60099776,"CENTER_LAT":52.2535763,"ADM0_VIZ_NAME":"Netherlands","Short_Name_ZH":"荷兰","Short_Name_FR":"Pays-Bas","Short_Name_ES":"Países Bajos","Short_Name_RU":"Нидерланды","Short_Name_AR":"هولندا","GlobalID":"7e60b8c3-5c48-45fa-a0fa-6b7b70afd725"}},{"attributes":{"ADM0_NAME":"New Zealand","DateOfReport":1584316800000,"cum_conf":6,"cum_death":0,"ID":40727,"CENTER_LON":171.60397128,"CENTER_LAT":-41.83710689,"ADM0_VIZ_NAME":"New Zealand","Short_Name_ZH":"新西兰","Short_Name_FR":"Nouvelle-Zélande","Short_Name_ES":"Nueva Zelandia","Short_Name_RU":"Новая Зеландия","Short_Name_AR":"نيوزيلندا","GlobalID":"12afdab0-c808-4970-9f1e-fa7c93d5a196"}},{"attributes":{"ADM0_NAME":"Nigeria","DateOfReport":1584316800000,"cum_conf":3,"cum_death":0,"ID":40728,"CENTER_LON":8.10527726,"CENTER_LAT":9.59360399,"ADM0_VIZ_NAME":"Nigeria","Short_Name_ZH":"尼日利亚","Short_Name_FR":"Nigéria","Short_Name_ES":"Nigeria","Short_Name_RU":"Нигерия","Short_Name_AR":"نيجيريا","GlobalID":"4404dd9b-ec88-46c8-b2dd-9b581a9cd9bd"}},{"attributes":{"ADM0_NAME":"North Macedonia","DateOfReport":1584316800000,"cum_conf":19,"cum_death":0,"ID":40729,"CENTER_LON":21.6991485,"CENTER_LAT":41.59922075,"ADM0_VIZ_NAME":"North Macedonia","Short_Name_ZH":"北马其顿","Short_Name_FR":"Macédoine du Nord","Short_Name_ES":"Macedonia del Norte","Short_Name_RU":"Северная Македония","Short_Name_AR":"مقدونيا الشمالية","GlobalID":"103d3913-f46b-4636-8d62-ac62637d8ac1"}},{"attributes":{"ADM0_NAME":"Norway","DateOfReport":1584316800000,"cum_conf":1169,"cum_death":1,"ID":40730,"CENTER_LON":14.07508911,"CENTER_LAT":64.44784887,"ADM0_VIZ_NAME":"Norway","Short_Name_ZH":"挪威","Short_Name_FR":"Norvège","Short_Name_ES":"Noruega","Short_Name_RU":"Норвегия","Short_Name_AR":"النرويج","GlobalID":"2dc9f9eb-938d-4862-ba73-8fcc46b39f59"}},{"attributes":{"ADM0_NAME":"Occupied Palestinian Territory","DateOfReport":1584316800000,"cum_conf":39,"cum_death":0,"ID":40731,"CENTER_LON":35.20376878,"CENTER_LAT":31.91395114,"ADM0_VIZ_NAME":"occupied Palestinian territory","Short_Name_ZH":"occupied Palestinian territory","Short_Name_FR":null,"Short_Name_ES":null,"Short_Name_RU":null,"Short_Name_AR":null,"GlobalID":"7b8e9b36-bab6-4ec7-975b-bd8839c3b814"}},{"attributes":{"ADM0_NAME":"Oman","DateOfReport":1584316800000,"cum_conf":22,"cum_death":0,"ID":40732,"CENTER_LON":56.10981747,"CENTER_LAT":20.60208368,"ADM0_VIZ_NAME":"Oman","Short_Name_ZH":"阿曼","Short_Name_FR":"Oman","Short_Name_ES":"Omán","Short_Name_RU":"Оман","Short_Name_AR":"عمان","GlobalID":"7e976d18-db5b-45f1-8abd-cfa7ac77c7f1"}},{"attributes":{"ADM0_NAME":"Pakistan","DateOfReport":1584316800000,"cum_conf":53,"cum_death":0,"ID":40733,"CENTER_LON":69.38581881,"CENTER_LAT":29.96678898,"ADM0_VIZ_NAME":"Pakistan","Short_Name_ZH":"巴基斯坦","Short_Name_FR":"Pakistan","Short_Name_ES":"Pakistán","Short_Name_RU":"Пакистан","Short_Name_AR":"باكستان","GlobalID":"a69ce07c-0b4a-47bc-a687-a0aee4a9e15c"}},{"attributes":{"ADM0_NAME":"Panama","DateOfReport":1584316800000,"cum_conf":43,"cum_death":1,"ID":40734,"CENTER_LON":-80.10906884,"CENTER_LAT":8.50544318,"ADM0_VIZ_NAME":"Panama","Short_Name_ZH":"巴拿马","Short_Name_FR":"Panama","Short_Name_ES":"Panamá","Short_Name_RU":"Панама","Short_Name_AR":"بنما","GlobalID":"9ee3fb8a-80ec-4f2d-bd76-4cebccc1ebf7"}},{"attributes":{"ADM0_NAME":"Paraguay","DateOfReport":1584316800000,"cum_conf":8,"cum_death":0,"ID":40735,"CENTER_LON":-58.39095178,"CENTER_LAT":-23.23612887,"ADM0_VIZ_NAME":"Paraguay","Short_Name_ZH":"巴拉圭","Short_Name_FR":"Paraguay","Short_Name_ES":"Paraguay","Short_Name_RU":"Парагвай","Short_Name_AR":"باراغواي","GlobalID":"9a08d9dd-a969-4edf-aa62-f9a2092e02c9"}},{"attributes":{"ADM0_NAME":"Peru","DateOfReport":1584316800000,"cum_conf":71,"cum_death":0,"ID":40736,"CENTER_LON":-74.37540668,"CENTER_LAT":-9.16377133,"ADM0_VIZ_NAME":"Peru","Short_Name_ZH":"秘鲁","Short_Name_FR":"Pérou","Short_Name_ES":"Perú","Short_Name_RU":"Перу","Short_Name_AR":"بيرو","GlobalID":"b43ac7d2-ad77-4d72-a278-44bd8034e9bb"}},{"attributes":{"ADM0_NAME":"Philippines","DateOfReport":1584316800000,"cum_conf":142,"cum_death":12,"ID":40737,"CENTER_LON":122.87360743,"CENTER_LAT":11.74740203,"ADM0_VIZ_NAME":"Philippines","Short_Name_ZH":"菲律宾","Short_Name_FR":"Philippines","Short_Name_ES":"Filipinas","Short_Name_RU":"Филиппины","Short_Name_AR":"الفلبين","GlobalID":"e3d6b724-a116-4475-9997-58e452ef2a5c"}},{"attributes":{"ADM0_NAME":"Poland","DateOfReport":1584316800000,"cum_conf":150,"cum_death":3,"ID":40738,"CENTER_LON":19.40092017,"CENTER_LAT":52.12472405,"ADM0_VIZ_NAME":"Poland","Short_Name_ZH":"波兰","Short_Name_FR":"Pologne","Short_Name_ES":"Polonia","Short_Name_RU":"Польша","Short_Name_AR":"بولندا","GlobalID":"4bc33db8-8b76-4f72-8abb-e98aabc9b5c6"}},{"attributes":{"ADM0_NAME":"Portugal","DateOfReport":1584316800000,"cum_conf":245,"cum_death":0,"ID":40739,"CENTER_LON":-8.46736074,"CENTER_LAT":39.60269511,"ADM0_VIZ_NAME":"Portugal","Short_Name_ZH":"葡萄牙","Short_Name_FR":"Portugal","Short_Name_ES":"Portugal","Short_Name_RU":"Португалия","Short_Name_AR":"البرتغال","GlobalID":"8f394c95-4f73-4593-b87b-f38babd03751"}},{"attributes":{"ADM0_NAME":"Puerto Rico","DateOfReport":1584316800000,"cum_conf":3,"cum_death":0,"ID":40740,"CENTER_LON":-66.46612748,"CENTER_LAT":18.22093074,"ADM0_VIZ_NAME":"Puerto Rico","Short_Name_ZH":null,"Short_Name_FR":null,"Short_Name_ES":null,"Short_Name_RU":null,"Short_Name_AR":null,"GlobalID":"e08c918b-8df2-48b5-bdb4-58a973a2bbdd"}},{"attributes":{"ADM0_NAME":"Qatar","DateOfReport":1584316800000,"cum_conf":401,"cum_death":0,"ID":40741,"CENTER_LON":51.19120083,"CENTER_LAT":25.31580997,"ADM0_VIZ_NAME":"Qatar","Short_Name_ZH":"卡塔尔","Short_Name_FR":"Qatar","Short_Name_ES":"Qatar","Short_Name_RU":"Катар","Short_Name_AR":"قطر","GlobalID":"7a718572-2341-4266-bc09-97638d748388"}},{"attributes":{"ADM0_NAME":"Republic of Korea","DateOfReport":1584316800000,"cum_conf":8236,"cum_death":75,"ID":40742,"CENTER_LON":127.82934392,"CENTER_LAT":36.36770228,"ADM0_VIZ_NAME":"Republic of Korea","Short_Name_ZH":"大韩民国","Short_Name_FR":"République de Corée","Short_Name_ES":"República de Corea","Short_Name_RU":"Республика Корея","Short_Name_AR":"جمهورية كوريا","GlobalID":"26c8f8e3-a7b4-4752-8bd8-663b2ea1c99d"}},{"attributes":{"ADM0_NAME":"Republic of Moldova","DateOfReport":1584316800000,"cum_conf":23,"cum_death":0,"ID":40743,"CENTER_LON":28.47434317,"CENTER_LAT":47.19332561,"ADM0_VIZ_NAME":"Republic of Moldova","Short_Name_ZH":"摩尔多瓦共和国","Short_Name_FR":"République de Moldova","Short_Name_ES":"la República de Moldova","Short_Name_RU":"Республика Молдова","Short_Name_AR":" جمهورية مولدوفا","GlobalID":"7b01c4bb-3cb4-4e2a-8ffe-c2232dca7a35"}},{"attributes":{"ADM0_NAME":"Réunion","DateOfReport":1584316800000,"cum_conf":9,"cum_death":0,"ID":40744,"CENTER_LON":55.53821274,"CENTER_LAT":-21.12162946,"ADM0_VIZ_NAME":"Réunion","Short_Name_ZH":null,"Short_Name_FR":null,"Short_Name_ES":null,"Short_Name_RU":null,"Short_Name_AR":null,"GlobalID":"e0c4e615-5617-4ae0-9ef6-b96eefc8da3e"}},{"attributes":{"ADM0_NAME":"Romania","DateOfReport":1584316800000,"cum_conf":158,"cum_death":0,"ID":40745,"CENTER_LON":24.96990758,"CENTER_LAT":45.84360558,"ADM0_VIZ_NAME":"Romania","Short_Name_ZH":"罗马尼亚","Short_Name_FR":"Roumanie","Short_Name_ES":"Rumania","Short_Name_RU":"Румыния","Short_Name_AR":"رومانيا","GlobalID":"263b2088-6125-4d84-850e-fd84fa03d507"}},{"attributes":{"ADM0_NAME":"Russian Federation","DateOfReport":1584316800000,"cum_conf":93,"cum_death":0,"ID":40746,"CENTER_LON":96.68944215,"CENTER_LAT":61.9882456,"ADM0_VIZ_NAME":"Russian Federation","Short_Name_ZH":"俄罗斯联邦","Short_Name_FR":"Fédération de Russie","Short_Name_ES":"Federación de Rusia","Short_Name_RU":"Российская Федерация","Short_Name_AR":"الاتحاد الروسي","GlobalID":"9c3051ad-258b-416a-8608-98c138af7463"}},{"attributes":{"ADM0_NAME":"Rwanda","DateOfReport":1584316800000,"cum_conf":5,"cum_death":0,"ID":40747,"CENTER_LON":29.91720553,"CENTER_LAT":-1.99796798,"ADM0_VIZ_NAME":"Rwanda","Short_Name_ZH":"卢旺达","Short_Name_FR":"Rwanda","Short_Name_ES":"Rwanda","Short_Name_RU":"Руанда","Short_Name_AR":"رواندا","GlobalID":"4290d17b-20d4-42c1-854d-a6cbffc53907"}},{"attributes":{"ADM0_NAME":"Saint Barthelemy","DateOfReport":1584316800000,"cum_conf":3,"cum_death":0,"ID":40748,"CENTER_LON":-62.83353803,"CENTER_LAT":17.9057614,"ADM0_VIZ_NAME":"Saint Barthelemy","Short_Name_ZH":"Saint Barthélemy","Short_Name_FR":null,"Short_Name_ES":null,"Short_Name_RU":null,"Short_Name_AR":null,"GlobalID":"e804a030-acec-404c-ba2a-7de32b8b135f"}},{"attributes":{"ADM0_NAME":"Saint Lucia","DateOfReport":1584316800000,"cum_conf":2,"cum_death":0,"ID":40749,"CENTER_LON":-60.96869084,"CENTER_LAT":13.89811518,"ADM0_VIZ_NAME":"Saint Lucia","Short_Name_ZH":"圣卢西亚","Short_Name_FR":"Sainte-Lucie","Short_Name_ES":"Santa Lucía","Short_Name_RU":"Сент-Люсия","Short_Name_AR":"سانت لوسيا","GlobalID":"f3608b04-1f62-4b1c-9690-a6c2b1f7b1e8"}},{"attributes":{"ADM0_NAME":"Saint Martin","DateOfReport":1584316800000,"cum_conf":2,"cum_death":0,"ID":40750,"CENTER_LON":-63.06457229,"CENTER_LAT":18.0876049,"ADM0_VIZ_NAME":"Saint Martin","Short_Name_ZH":"Saint Martin","Short_Name_FR":null,"Short_Name_ES":null,"Short_Name_RU":null,"Short_Name_AR":null,"GlobalID":"dad95bf3-e019-45ee-aa9c-314a580b5263"}},{"attributes":{"ADM0_NAME":"Saint Vincent and the Grenadines","DateOfReport":1584316800000,"cum_conf":1,"cum_death":0,"ID":40751,"CENTER_LON":-61.20753009,"CENTER_LAT":13.20205468,"ADM0_VIZ_NAME":"Saint Vincent and the Grenadines","Short_Name_ZH":"圣文森特和格林纳丁斯","Short_Name_FR":"Saint-Vincent-et-les Grenadines","Short_Name_ES":"San Vicente y las Granadinas","Short_Name_RU":"Сент-Винсент и Гренадины","Short_Name_AR":"سانت فنسنت وجزر غرينادين","GlobalID":"671bfb73-89f5-4c70-aff6-46e942ae8833"}},{"attributes":{"ADM0_NAME":"San Marino","DateOfReport":1584316800000,"cum_conf":102,"cum_death":9,"ID":40752,"CENTER_LON":12.46035762,"CENTER_LAT":43.94191474,"ADM0_VIZ_NAME":"San Marino","Short_Name_ZH":"圣马力诺","Short_Name_FR":"Saint-Marin","Short_Name_ES":"San Marino","Short_Name_RU":"Сан-Марино","Short_Name_AR":"سان مارينو","GlobalID":"1d5694be-cd20-4f13-9b75-564e1baadb46"}},{"attributes":{"ADM0_NAME":"Saudi Arabia","DateOfReport":1584316800000,"cum_conf":133,"cum_death":0,"ID":40753,"CENTER_LON":44.57044965,"CENTER_LAT":24.08088192,"ADM0_VIZ_NAME":"Saudi Arabia","Short_Name_ZH":"沙特阿拉伯","Short_Name_FR":"Arabie saoudite","Short_Name_ES":"Arabia Saudita","Short_Name_RU":"Саудовская Аравия","Short_Name_AR":"المملكة العربية السعودية","GlobalID":"0b9547f7-4bad-4980-9cf5-bb75d0ee88fa"}},{"attributes":{"ADM0_NAME":"Senegal","DateOfReport":1584316800000,"cum_conf":26,"cum_death":0,"ID":40754,"CENTER_LON":-14.46817708,"CENTER_LAT":14.36697954,"ADM0_VIZ_NAME":"Senegal","Short_Name_ZH":"塞内加尔","Short_Name_FR":"Sénégal","Short_Name_ES":"Senegal","Short_Name_RU":"Сенегал","Short_Name_AR":"السنغال","GlobalID":"d4ab7ca5-fe1b-46e1-be96-b96047d87609"}},{"attributes":{"ADM0_NAME":"Serbia","DateOfReport":1584316800000,"cum_conf":62,"cum_death":0,"ID":40755,"CENTER_LON":20.81133086,"CENTER_LAT":44.03387222,"ADM0_VIZ_NAME":"Serbia","Short_Name_ZH":"塞尔维亚","Short_Name_FR":"Serbie","Short_Name_ES":"Serbia","Short_Name_RU":"Сербия","Short_Name_AR":"صربيا","GlobalID":"84dfc8fc-e8c0-43f8-8743-a98ee97019d3"}},{"attributes":{"ADM0_NAME":"Seychelles","DateOfReport":1584316800000,"cum_conf":4,"cum_death":0,"ID":40756,"CENTER_LON":52.23005901,"CENTER_LAT":-6.39906405,"ADM0_VIZ_NAME":"Seychelles","Short_Name_ZH":"塞舌尔","Short_Name_FR":"Seychelles","Short_Name_ES":"Seychelles","Short_Name_RU":"Сейшельские Острова","Short_Name_AR":"سيشيل","GlobalID":"e19a41bb-9189-45c2-a93a-f1cb3330c787"}},{"attributes":{"ADM0_NAME":"Singapore","DateOfReport":1584316800000,"cum_conf":243,"cum_death":0,"ID":40757,"CENTER_LON":103.80765359,"CENTER_LAT":1.35118038,"ADM0_VIZ_NAME":"Singapore","Short_Name_ZH":"新加坡","Short_Name_FR":"Singapour","Short_Name_ES":"Singapur","Short_Name_RU":"Сингапур","Short_Name_AR":"سنغافورة","GlobalID":"a70219cf-f77e-43e3-8836-f50983e5f902"}},{"attributes":{"ADM0_NAME":"Slovakia","DateOfReport":1584316800000,"cum_conf":72,"cum_death":0,"ID":40758,"CENTER_LON":19.49145028,"CENTER_LAT":48.7073588,"ADM0_VIZ_NAME":"Slovakia","Short_Name_ZH":"斯洛伐克","Short_Name_FR":"Slovaquie","Short_Name_ES":"Eslovaquia","Short_Name_RU":"Словакия","Short_Name_AR":"سلوفاكيا","GlobalID":"c17b3ed4-eb1c-4882-83b5-6a52b3179788"}},{"attributes":{"ADM0_NAME":"Slovenia","DateOfReport":1584316800000,"cum_conf":253,"cum_death":0,"ID":40759,"CENTER_LON":14.82707444,"CENTER_LAT":46.12355026,"ADM0_VIZ_NAME":"Slovenia","Short_Name_ZH":"斯洛文尼亚","Short_Name_FR":"Slovénie","Short_Name_ES":"Eslovenia","Short_Name_RU":"Словения","Short_Name_AR":"سلوفينيا","GlobalID":"3e9ce899-b798-4ca6-a406-9d73d00f6ded"}},{"attributes":{"ADM0_NAME":"South Africa","DateOfReport":1584316800000,"cum_conf":51,"cum_death":0,"ID":40760,"CENTER_LON":25.08871199,"CENTER_LAT":-28.99321352,"ADM0_VIZ_NAME":"South Africa","Short_Name_ZH":"南非","Short_Name_FR":"Afrique du Sud","Short_Name_ES":"Sudáfrica","Short_Name_RU":"Южная Африка","Short_Name_AR":"جنوب أفريقيا","GlobalID":"840b4bee-f6b8-4209-8909-6748ea4c1625"}},{"attributes":{"ADM0_NAME":"Spain","DateOfReport":1584316800000,"cum_conf":9191,"cum_death":309,"ID":40761,"CENTER_LON":-3.64931118,"CENTER_LAT":40.22749596,"ADM0_VIZ_NAME":"Spain","Short_Name_ZH":"西班牙","Short_Name_FR":"Espagne","Short_Name_ES":"España","Short_Name_RU":"Испания","Short_Name_AR":"إسبانيا","GlobalID":"fb6147c6-d4d4-4d5a-8db7-0a156eff8700"}},{"attributes":{"ADM0_NAME":"Sri Lanka","DateOfReport":1584316800000,"cum_conf":19,"cum_death":0,"ID":40762,"CENTER_LON":80.70426262,"CENTER_LAT":7.61236243,"ADM0_VIZ_NAME":"Sri Lanka","Short_Name_ZH":"斯里兰卡","Short_Name_FR":"Sri Lanka","Short_Name_ES":"Sri Lanka","Short_Name_RU":"Шри-Ланка","Short_Name_AR":"سري لانكا","GlobalID":"3628d860-03fa-4774-9f9f-98a491979093"}},{"attributes":{"ADM0_NAME":"Sudan","DateOfReport":1584316800000,"cum_conf":1,"cum_death":1,"ID":40763,"CENTER_LON":30.00438135,"CENTER_LAT":16.04883821,"ADM0_VIZ_NAME":"Sudan","Short_Name_ZH":null,"Short_Name_FR":null,"Short_Name_ES":null,"Short_Name_RU":null,"Short_Name_AR":null,"GlobalID":"cf35ddd7-db91-4e07-a408-c9bd2620451c"}},{"attributes":{"ADM0_NAME":"Suriname","DateOfReport":1584316800000,"cum_conf":1,"cum_death":0,"ID":40764,"CENTER_LON":-55.91158124,"CENTER_LAT":4.12671321,"ADM0_VIZ_NAME":"Suriname","Short_Name_ZH":"苏里南","Short_Name_FR":"Suriname","Short_Name_ES":"Suriname","Short_Name_RU":"Суринам","Short_Name_AR":"سورينام","GlobalID":"efc8ef0b-232c-4adc-b844-eae78a0ae256"}},{"attributes":{"ADM0_NAME":"Sweden","DateOfReport":1584316800000,"cum_conf":1059,"cum_death":3,"ID":40765,"CENTER_LON":16.74115526,"CENTER_LAT":62.78774226,"ADM0_VIZ_NAME":"Sweden","Short_Name_ZH":"瑞典","Short_Name_FR":"Suède","Short_Name_ES":"Suecia","Short_Name_RU":"Швеция","Short_Name_AR":"السويد","GlobalID":"7c2292ac-799a-4061-b98d-2dcf16a82ad8"}},{"attributes":{"ADM0_NAME":"Switzerland","DateOfReport":1584316800000,"cum_conf":2200,"cum_death":14,"ID":40766,"CENTER_LON":8.23458738,"CENTER_LAT":46.8025828,"ADM0_VIZ_NAME":"Switzerland","Short_Name_ZH":"瑞士","Short_Name_FR":"Suisse","Short_Name_ES":"Suiza","Short_Name_RU":"Швейцария","Short_Name_AR":"سويسرا","GlobalID":"4d05a0fc-a8c5-4208-a0e1-987e5a3f5a62"}},{"attributes":{"ADM0_NAME":"Thailand","DateOfReport":1584316800000,"cum_conf":147,"cum_death":1,"ID":40767,"CENTER_LON":101.01490782,"CENTER_LAT":15.11989876,"ADM0_VIZ_NAME":"Thailand","Short_Name_ZH":"泰国","Short_Name_FR":"Thaïlande","Short_Name_ES":"Tailandia","Short_Name_RU":"Таиланд","Short_Name_AR":"تايلند","GlobalID":"35b6ec28-9705-43df-a418-fb4a4bed5be5"}},{"attributes":{"ADM0_NAME":"The United Kingdom","DateOfReport":1584316800000,"cum_conf":1547,"cum_death":55,"ID":40768,"CENTER_LON":-2.90049476,"CENTER_LAT":54.1601792,"ADM0_VIZ_NAME":"The United Kingdom","Short_Name_ZH":"大不列颠及北爱尔兰联合王国","Short_Name_FR":"Royaume-Uni de Grande-Bretagne et d'Irlande du Nord","Short_Name_ES":"Reino Unido de Gran Bretaña e Irlanda del Norte","Short_Name_RU":"Соединенное Королевство Великобритании и Северной Ирландии","Short_Name_AR":"المملكة المتحدة لبريطانيا العظمى وآيرلندا الشمالية ","GlobalID":"b3db9631-80ca-4a50-8ce2-cedecc3c2db4"}},{"attributes":{"ADM0_NAME":"Togo","DateOfReport":1584316800000,"cum_conf":1,"cum_death":0,"ID":40769,"CENTER_LON":0.97584596,"CENTER_LAT":8.53491037,"ADM0_VIZ_NAME":"Togo","Short_Name_ZH":"多哥","Short_Name_FR":"Togo","Short_Name_ES":"Togo (el)","Short_Name_RU":"Того","Short_Name_AR":"توغو","GlobalID":"e2c25c56-f81d-4c83-8ae8-9c18584d546e"}},{"attributes":{"ADM0_NAME":"Trinidad and Tobago","DateOfReport":1584316800000,"cum_conf":2,"cum_death":0,"ID":40770,"CENTER_LON":-61.25263722,"CENTER_LAT":10.46836429,"ADM0_VIZ_NAME":"Trinidad and Tobago","Short_Name_ZH":"特立尼达和多巴哥","Short_Name_FR":"Trinité-et-Tobago","Short_Name_ES":"Trinidad y Tabago","Short_Name_RU":"Тринидад и Тобаго ","Short_Name_AR":"ترينيداد وتوباغو","GlobalID":"83b85758-3dd7-4e43-a655-69a78064fcce"}},{"attributes":{"ADM0_NAME":"Tunisia","DateOfReport":1584316800000,"cum_conf":20,"cum_death":0,"ID":40771,"CENTER_LON":9.56156142,"CENTER_LAT":34.11124917,"ADM0_VIZ_NAME":"Tunisia","Short_Name_ZH":"突尼斯","Short_Name_FR":"Tunisie","Short_Name_ES":"Túnez","Short_Name_RU":"Тунис","Short_Name_AR":"تونس","GlobalID":"56263aee-c4d5-47d2-b2c0-41cd1e301554"}},{"attributes":{"ADM0_NAME":"Turkey","DateOfReport":1584316800000,"cum_conf":12,"cum_death":0,"ID":40772,"CENTER_LON":35.17921811,"CENTER_LAT":39.06061856,"ADM0_VIZ_NAME":"Turkey","Short_Name_ZH":"土耳其","Short_Name_FR":"Turquie","Short_Name_ES":"Turquía","Short_Name_RU":"Турция","Short_Name_AR":"تركيا","GlobalID":"f4f4a10f-eac8-4900-84e9-11b1e32f6b1e"}},{"attributes":{"ADM0_NAME":"Ukraine","DateOfReport":1584316800000,"cum_conf":5,"cum_death":1,"ID":40773,"CENTER_LON":31.38784552,"CENTER_LAT":49.01609429,"ADM0_VIZ_NAME":"Ukraine","Short_Name_ZH":"乌克兰","Short_Name_FR":"Ukraine","Short_Name_ES":"Ucrania","Short_Name_RU":"Украина","Short_Name_AR":"أوكرانيا","GlobalID":"7878a8f8-a77e-4a09-994a-7a35ee90e374"}},{"attributes":{"ADM0_NAME":"United Arab Emirates","DateOfReport":1584316800000,"cum_conf":98,"cum_death":0,"ID":40774,"CENTER_LON":54.33219878,"CENTER_LAT":23.91267254,"ADM0_VIZ_NAME":"United Arab Emirates","Short_Name_ZH":"阿拉伯联合酋长国","Short_Name_FR":"Émirats arabes unis","Short_Name_ES":"Emiratos Árabes Unidos","Short_Name_RU":"Объединенные Арабские Эмираты","Short_Name_AR":"الإمارات العربية المتحدة","GlobalID":"3e79e65d-349a-47ef-9b37-6e9bfa9406e3"}},{"attributes":{"ADM0_NAME":"United States of America","DateOfReport":1584316800000,"cum_conf":1714,"cum_death":41,"ID":40775,"CENTER_LON":-112.49356447,"CENTER_LAT":45.6954816,"ADM0_VIZ_NAME":"United States of America","Short_Name_ZH":"美利坚合众国","Short_Name_FR":"États-Unis d'Amérique","Short_Name_ES":"Estados Unidos de América","Short_Name_RU":"Соединенные Штаты Америки","Short_Name_AR":"الولايات المتحدة الأمريكية ","GlobalID":"b8bb55cb-e2df-43ed-b3dc-1a19a0927d1d"}},{"attributes":{"ADM0_NAME":"Uruguay","DateOfReport":1584316800000,"cum_conf":4,"cum_death":0,"ID":40776,"CENTER_LON":-56.01217362,"CENTER_LAT":-32.79956992,"ADM0_VIZ_NAME":"Uruguay","Short_Name_ZH":"乌拉圭","Short_Name_FR":"Uruguay","Short_Name_ES":"Uruguay","Short_Name_RU":"Уругвай","Short_Name_AR":"أوروغواي","GlobalID":"adf8edb6-854b-4c30-86e5-e51a8af81a70"}},{"attributes":{"ADM0_NAME":"Uzbekistan","DateOfReport":1584316800000,"cum_conf":4,"cum_death":0,"ID":40777,"CENTER_LON":63.16950578,"CENTER_LAT":41.75041661,"ADM0_VIZ_NAME":"Uzbekistan","Short_Name_ZH":"乌兹别克斯坦","Short_Name_FR":"Ouzbékistan","Short_Name_ES":"Uzbekistán","Short_Name_RU":"Узбекистан","Short_Name_AR":"أوزبكستان","GlobalID":"b1033d73-d9d3-4541-98e3-582b0ec074cc"}},{"attributes":{"ADM0_NAME":"Venezuela (Bolivarian Republic of)","DateOfReport":1584316800000,"cum_conf":17,"cum_death":0,"ID":40778,"CENTER_LON":-66.16621515,"CENTER_LAT":7.12493711,"ADM0_VIZ_NAME":"Venezuela (Bolivarian Republic of)","Short_Name_ZH":"委内瑞拉(玻利瓦尔共和国)","Short_Name_FR":"Venezuela (République bolivarienne du)","Short_Name_ES":"Venezuela (República Bolivariana de)","Short_Name_RU":"Венесуэла (Боливарианская Республика)","Short_Name_AR":"فنزويلا","GlobalID":"40cd7997-eb02-4deb-ad4e-413ace0f6292"}},{"attributes":{"ADM0_NAME":"Viet Nam","DateOfReport":1584316800000,"cum_conf":57,"cum_death":0,"ID":40779,"CENTER_LON":106.30403531,"CENTER_LAT":16.65160342,"ADM0_VIZ_NAME":"Viet Nam","Short_Name_ZH":"越南","Short_Name_FR":"Viet Nam","Short_Name_ES":"Viet Nam","Short_Name_RU":"Вьетнам","Short_Name_AR":"فييت نام","GlobalID":"49f3ff3e-11ef-4df1-a1c1-938651193b9e"}},{"attributes":{"ADM0_NAME":"Cote d’Ivoire","DateOfReport":1584316800000,"cum_conf":3,"cum_death":0,"ID":40780,"CENTER_LON":-5.55549992,"CENTER_LAT":7.6317253,"ADM0_VIZ_NAME":"Côte d’Ivoire","Short_Name_ZH":"科特迪瓦","Short_Name_FR":"Côte d'Ivoire","Short_Name_ES":"Côte d'Ivoire","Short_Name_RU":"Кот-д'Ивуар","Short_Name_AR":"كوت ديفوار","GlobalID":"8b0a9158-6e67-4182-9485-4c58cc9a3e01"}},{"attributes":{"ADM0_NAME":"Somalia","DateOfReport":1584316800000,"cum_conf":1,"cum_death":0,"ID":40781,"CENTER_LON":45.86255927,"CENTER_LAT":6.0637135,"ADM0_VIZ_NAME":"Somalia","Short_Name_ZH":"索马里","Short_Name_FR":"Somalie","Short_Name_ES":"Somalia","Short_Name_RU":"Сомали","Short_Name_AR":"الصومال","GlobalID":"0438f621-447f-47a1-aff5-01d90a8b01a3"}}]}