{"objectIdFieldName":"ID","uniqueIdField":{"name":"ID","isSystemMaintained":true},"globalIdFieldName":"GlobalID","geometryType":"esriGeometryPolygon","spatialReference":{"wkid":4326,"latestWkid":4326},"fields":[{"name":"ADM0_NAME","type":"esriFieldTypeString","alias":"ADM0_NAME","sqlType":"sqlTypeOther","length":255,"domain":null,"defaultValue":null},{"name":"DateOfReport","type":"esriFieldTypeDate","alias":"DateOfReport","sqlType":"sqlTypeOther","length":8,"domain":null,"defaultValue":null},{"name":"cum_conf","type":"esriFieldTypeInteger","alias":"cum_conf","sqlType":"sqlTypeOther","domain":null,"defaultValue":null},{"name":"cum_death","type":"esriFieldTypeInteger","alias":"cum_death","sqlType":"sqlTypeOther","domain":null,"defaultValue":null},{"name":"ID","type":"esriFieldTypeOID","alias":"ID","sqlType":"sqlTypeOther","domain":null,"defaultValue":null},{"name":"CENTER_LON","type":"esriFieldTypeDouble","alias":"CENTER_LON","sqlType":"sqlTypeOther","domain":null,"defaultValue":null},{"name":"CENTER_LAT","type":"esriFieldTypeDouble","alias":"CENTER_LAT","sqlType":"sqlTypeOther","domain":null,"defaultValue":null},{"name":"ADM0_VIZ_NAME","type":"esriFieldTypeString","alias":"ADM0_VIZ_NAME","sqlType":"sqlTypeOther","length":255,"domain":null,"defaultValue":null},{"name":"Short_Name_ZH","type":"esriFieldTypeString","alias":"Short_Name_ZH","sqlType":"sqlTypeOther","length":255,"domain":null,"defaultValue":null},{"name":"Short_Name_FR","type":"esriFieldTypeString","alias":"Short_Name_FR","sqlType":"sqlTypeOther","length":255,"domain":null,"defaultValue":null},{"name":"Short_Name_ES","type":"esriFieldTypeString","alias":"Short_Name_ES","sqlType":"sqlTypeOther","length":255,"domain":null,"defaultValue":null},{"name":"Short_Name_RU","type":"esriFieldTypeString","alias":"Short_Name_RU","sqlType":"sqlTypeOther","length":255,"domain":null,"defaultValue":null},{"name":"Short_Name_AR","type":"esriFieldTypeString","alias":"Short_Name_AR","sqlType":"sqlTypeOther","length":255,"domain":null,"defaultValue":null},{"name":"GlobalID","type":"esriFieldTypeGlobalID","alias":"GlobalID","sqlType":"sqlTypeOther","length":38,"domain":null}],"features":[{"attributes":{"ADM0_NAME":"China","DateOfReport":1584921600000,"cum_conf":81767,"cum_death":3283,"ID":43611,"CENTER_LON":103.8934731,"CENTER_LAT":36.51870146,"ADM0_VIZ_NAME":"China","Short_Name_ZH":"中国","Short_Name_FR":"Chine","Short_Name_ES":"China","Short_Name_RU":"Китай","Short_Name_AR":"الصين","GlobalID":"cdfe77a2-e965-4a5a-999e-c884cdd0cb3e"}},{"attributes":{"ADM0_NAME":"Republic of Korea","DateOfReport":1584921600000,"cum_conf":9037,"cum_death":120,"ID":43612,"CENTER_LON":127.82934392,"CENTER_LAT":36.36770228,"ADM0_VIZ_NAME":"Republic of Korea","Short_Name_ZH":"大韩民国","Short_Name_FR":"République de Corée","Short_Name_ES":"República de Corea","Short_Name_RU":"Республика Корея","Short_Name_AR":"جمهورية كوريا","GlobalID":"9cd742b7-d571-4c08-b467-b88953f9c58f"}},{"attributes":{"ADM0_NAME":"Australia","DateOfReport":1584921600000,"cum_conf":2136,"cum_death":8,"ID":43613,"CENTER_LON":134.49097595,"CENTER_LAT":-25.73326023,"ADM0_VIZ_NAME":"Australia","Short_Name_ZH":"澳大利亚","Short_Name_FR":"Australie","Short_Name_ES":"Australia","Short_Name_RU":"Австралия","Short_Name_AR":"أستراليا","GlobalID":"a6661693-e5ba-4b03-a380-81cdfe8a87a2"}},{"attributes":{"ADM0_NAME":"Malaysia","DateOfReport":1584921600000,"cum_conf":1518,"cum_death":15,"ID":43614,"CENTER_LON":109.7115743,"CENTER_LAT":3.79382045,"ADM0_VIZ_NAME":"Malaysia","Short_Name_ZH":"马来西亚","Short_Name_FR":"Malaisie","Short_Name_ES":"Malasia","Short_Name_RU":"Малайзия","Short_Name_AR":"ماليزيا","GlobalID":"fde7d09f-7ce1-4268-bd17-fe49bf6ffda6"}},{"attributes":{"ADM0_NAME":"Japan","DateOfReport":1584921600000,"cum_conf":1128,"cum_death":42,"ID":43615,"CENTER_LON":137.97387026,"CENTER_LAT":37.53982621,"ADM0_VIZ_NAME":"Japan","Short_Name_ZH":"日本","Short_Name_FR":"Japon","Short_Name_ES":"Japón","Short_Name_RU":"Япония","Short_Name_AR":"اليابان","GlobalID":"7ddbb100-ffcd-423f-8c68-9b31c93f45ad"}},{"attributes":{"ADM0_NAME":"Singapore","DateOfReport":1584921600000,"cum_conf":507,"cum_death":2,"ID":43616,"CENTER_LON":103.80765359,"CENTER_LAT":1.35118038,"ADM0_VIZ_NAME":"Singapore","Short_Name_ZH":"新加坡","Short_Name_FR":"Singapour","Short_Name_ES":"Singapur","Short_Name_RU":"Сингапур","Short_Name_AR":"سنغافورة","GlobalID":"d6881fc0-a3d3-4532-9b66-85627f990f36"}},{"attributes":{"ADM0_NAME":"Philippines","DateOfReport":1584921600000,"cum_conf":462,"cum_death":33,"ID":43617,"CENTER_LON":122.87360743,"CENTER_LAT":11.74740203,"ADM0_VIZ_NAME":"Philippines","Short_Name_ZH":"菲律宾","Short_Name_FR":"Philippines","Short_Name_ES":"Filipinas","Short_Name_RU":"Филиппины","Short_Name_AR":"الفلبين","GlobalID":"96da4d5c-b609-4123-bae9-8f5620b9b435"}},{"attributes":{"ADM0_NAME":"New Zealand","DateOfReport":1584921600000,"cum_conf":152,"cum_death":0,"ID":43618,"CENTER_LON":171.60397128,"CENTER_LAT":-41.83710689,"ADM0_VIZ_NAME":"New Zealand","Short_Name_ZH":"新西兰","Short_Name_FR":"Nouvelle-Zélande","Short_Name_ES":"Nueva Zelandia","Short_Name_RU":"Новая Зеландия","Short_Name_AR":"نيوزيلندا","GlobalID":"cfabd0dc-ee89-4fad-afc0-e108457216d8"}},{"attributes":{"ADM0_NAME":"Viet Nam","DateOfReport":1584921600000,"cum_conf":123,"cum_death":0,"ID":43619,"CENTER_LON":106.30403531,"CENTER_LAT":16.65160342,"ADM0_VIZ_NAME":"Viet Nam","Short_Name_ZH":"越南","Short_Name_FR":"Viet Nam","Short_Name_ES":"Viet Nam","Short_Name_RU":"Вьетнам","Short_Name_AR":"فييت نام","GlobalID":"2f2a1891-35fe-448b-8544-36e4129b4bbf"}},{"attributes":{"ADM0_NAME":"Brunei Darussalam","DateOfReport":1584921600000,"cum_conf":91,"cum_death":0,"ID":43620,"CENTER_LON":114.76132088,"CENTER_LAT":4.52147838,"ADM0_VIZ_NAME":"Brunei Darussalam","Short_Name_ZH":"文莱达鲁萨兰国","Short_Name_FR":"Brunéi Darussalam","Short_Name_ES":"Brunei Darussalam","Short_Name_RU":"Бруней-Даруссалам ","Short_Name_AR":"بروني دار السلام","GlobalID":"ef56d19b-72fe-459d-bd43-f029225dfe5b"}},{"attributes":{"ADM0_NAME":"Cambodia","DateOfReport":1584921600000,"cum_conf":87,"cum_death":0,"ID":43621,"CENTER_LON":104.92123962,"CENTER_LAT":12.71402994,"ADM0_VIZ_NAME":"Cambodia","Short_Name_ZH":"柬埔寨","Short_Name_FR":"Cambodge","Short_Name_ES":"Camboya","Short_Name_RU":"Камбоджа","Short_Name_AR":"كمبوديا","GlobalID":"e55b97a5-9566-47a5-9a57-9c508556b580"}},{"attributes":{"ADM0_NAME":"Guam","DateOfReport":1584921600000,"cum_conf":29,"cum_death":1,"ID":43622,"CENTER_LON":144.77585678,"CENTER_LAT":13.44403107,"ADM0_VIZ_NAME":"Guam","Short_Name_ZH":"关岛\r\n","Short_Name_FR":null,"Short_Name_ES":null,"Short_Name_RU":null,"Short_Name_AR":null,"GlobalID":"6bd56e2c-67cf-47bf-ada1-ea0e2b5a6cf0"}},{"attributes":{"ADM0_NAME":"French Polynesia","DateOfReport":1584921600000,"cum_conf":23,"cum_death":0,"ID":43623,"CENTER_LON":-149.568,"CENTER_LAT":-17.532,"ADM0_VIZ_NAME":"French Polynesia","Short_Name_ZH":"法属波利尼西亚\r\n","Short_Name_FR":null,"Short_Name_ES":null,"Short_Name_RU":null,"Short_Name_AR":null,"GlobalID":"742217b0-aa2e-4d5a-8075-de7746dd1222"}},{"attributes":{"ADM0_NAME":"Mongolia","DateOfReport":1584921600000,"cum_conf":10,"cum_death":0,"ID":43624,"CENTER_LON":103.08303108,"CENTER_LAT":46.83520872,"ADM0_VIZ_NAME":"Mongolia","Short_Name_ZH":"蒙古","Short_Name_FR":"Mongolie","Short_Name_ES":"Mongolia","Short_Name_RU":"Монголия","Short_Name_AR":"منغوليا","GlobalID":"632d2e60-7693-4de0-aac2-47b94f8f4c48"}},{"attributes":{"ADM0_NAME":"New Caledonia","DateOfReport":1584921600000,"cum_conf":9,"cum_death":0,"ID":43625,"CENTER_LON":165.67184977,"CENTER_LAT":-21.29461419,"ADM0_VIZ_NAME":"New Caledonia","Short_Name_ZH":"新喀里多尼亚\r\n","Short_Name_FR":null,"Short_Name_ES":null,"Short_Name_RU":null,"Short_Name_AR":null,"GlobalID":"b65ef3b5-10cf-4fb6-b3ed-04cc00d63cbe"}},{"attributes":{"ADM0_NAME":"Fiji","DateOfReport":1584921600000,"cum_conf":4,"cum_death":0,"ID":43626,"CENTER_LON":178.182,"CENTER_LAT":-17.855,"ADM0_VIZ_NAME":"Fiji","Short_Name_ZH":"斐济","Short_Name_FR":"Fidji","Short_Name_ES":"Fiji","Short_Name_RU":"Фиджи ","Short_Name_AR":"فيجي","GlobalID":"d255f05d-0bd3-4ffb-a085-d092cf3f007b"}},{"attributes":{"ADM0_NAME":"Lao People's Democratic Republic","DateOfReport":1584921600000,"cum_conf":2,"cum_death":0,"ID":43627,"CENTER_LON":103.76340559,"CENTER_LAT":18.50245057,"ADM0_VIZ_NAME":"Lao People's Democratic Republic","Short_Name_ZH":"老挝人民民主共和国","Short_Name_FR":"République démocratique populaire lao","Short_Name_ES":"República Democrática Popular Lao","Short_Name_RU":"Лаосская Народно-Демократическая Республика","Short_Name_AR":"جمهورية لاوس الديمقراطية الشعبية","GlobalID":"f32d1618-e97c-4e27-8393-d93b83026940"}},{"attributes":{"ADM0_NAME":"Papua New Guinea","DateOfReport":1584921600000,"cum_conf":1,"cum_death":0,"ID":43628,"CENTER_LON":145.25368759,"CENTER_LAT":-6.47589335,"ADM0_VIZ_NAME":"Papua New Guinea","Short_Name_ZH":"巴布亚新几内亚","Short_Name_FR":"Papouasie-Nouvelle-Guinée","Short_Name_ES":"Papua Nueva Guinea","Short_Name_RU":"Папуа-Новая Гвинея","Short_Name_AR":"بابوا غينيا الجديدة","GlobalID":"e99eed5c-88d0-4c02-9e2f-e9265fbef8ef"}},{"attributes":{"ADM0_NAME":"Italy","DateOfReport":1584921600000,"cum_conf":63927,"cum_death":6077,"ID":43629,"CENTER_LON":12.07165559,"CENTER_LAT":42.79119167,"ADM0_VIZ_NAME":"Italy","Short_Name_ZH":"意大利","Short_Name_FR":"Italie","Short_Name_ES":"Italia","Short_Name_RU":"Италия","Short_Name_AR":"إيطاليا","GlobalID":"a8f9b561-6f54-4474-b10e-87ffff02bcbd"}},{"attributes":{"ADM0_NAME":"Spain","DateOfReport":1584921600000,"cum_conf":33089,"cum_death":2182,"ID":43630,"CENTER_LON":-3.64931118,"CENTER_LAT":40.22749596,"ADM0_VIZ_NAME":"Spain","Short_Name_ZH":"西班牙","Short_Name_FR":"Espagne","Short_Name_ES":"España","Short_Name_RU":"Испания","Short_Name_AR":"إسبانيا","GlobalID":"2e23591c-3f2b-4421-a62f-7cb2b54fa14b"}},{"attributes":{"ADM0_NAME":"Germany","DateOfReport":1584921600000,"cum_conf":29212,"cum_death":126,"ID":43631,"CENTER_LON":10.39232967,"CENTER_LAT":51.11015396,"ADM0_VIZ_NAME":"Germany","Short_Name_ZH":"德国","Short_Name_FR":"Allemagne","Short_Name_ES":"Alemania","Short_Name_RU":"Германия","Short_Name_AR":"ألمانيا","GlobalID":"75f9f097-400e-4411-a4b8-07942dcadee7"}},{"attributes":{"ADM0_NAME":"France","DateOfReport":1584921600000,"cum_conf":19615,"cum_death":860,"ID":43632,"CENTER_LON":2.55042646,"CENTER_LAT":46.56487403,"ADM0_VIZ_NAME":"France","Short_Name_ZH":"法国","Short_Name_FR":"France","Short_Name_ES":"Francia","Short_Name_RU":"Франция","Short_Name_AR":"فرنسا","GlobalID":"18bea3f2-60e1-46a9-a112-cc2230de8878"}},{"attributes":{"ADM0_NAME":"Switzerland","DateOfReport":1584921600000,"cum_conf":8015,"cum_death":66,"ID":43633,"CENTER_LON":8.23458738,"CENTER_LAT":46.8025828,"ADM0_VIZ_NAME":"Switzerland","Short_Name_ZH":"瑞士","Short_Name_FR":"Suisse","Short_Name_ES":"Suiza","Short_Name_RU":"Швейцария","Short_Name_AR":"سويسرا","GlobalID":"74566547-3b56-48ae-bd0a-d10ace2fa240"}},{"attributes":{"ADM0_NAME":"The United Kingdom","DateOfReport":1584921600000,"cum_conf":6654,"cum_death":335,"ID":43634,"CENTER_LON":-2.90049476,"CENTER_LAT":54.1601792,"ADM0_VIZ_NAME":"The United Kingdom","Short_Name_ZH":"大不列颠及北爱尔兰联合王国","Short_Name_FR":"Royaume-Uni de Grande-Bretagne et d'Irlande du Nord","Short_Name_ES":"Reino Unido de Gran Bretaña e Irlanda del Norte","Short_Name_RU":"Соединенное Королевство Великобритании и Северной Ирландии","Short_Name_AR":"المملكة المتحدة لبريطانيا العظمى وآيرلندا الشمالية ","GlobalID":"9cdc8806-fee3-4c8f-9874-449fb18f883e"}},{"attributes":{"ADM0_NAME":"Netherlands","DateOfReport":1584921600000,"cum_conf":4749,"cum_death":213,"ID":43635,"CENTER_LON":5.60099776,"CENTER_LAT":52.2535763,"ADM0_VIZ_NAME":"Netherlands","Short_Name_ZH":"荷兰","Short_Name_FR":"Pays-Bas","Short_Name_ES":"Países Bajos","Short_Name_RU":"Нидерланды","Short_Name_AR":"هولندا","GlobalID":"dd69eab7-f706-448c-87f5-217e0f2fc1f4"}},{"attributes":{"ADM0_NAME":"Austria","DateOfReport":1584921600000,"cum_conf":4486,"cum_death":25,"ID":43636,"CENTER_LON":14.13998831,"CENTER_LAT":47.59295768,"ADM0_VIZ_NAME":"Austria","Short_Name_ZH":"奥地利","Short_Name_FR":"Autriche","Short_Name_ES":"Austria","Short_Name_RU":"Австрия","Short_Name_AR":"النمسا","GlobalID":"56569522-95f4-4e46-ad0f-fce7467d3f9b"}},{"attributes":{"ADM0_NAME":"Belgium","DateOfReport":1584921600000,"cum_conf":3743,"cum_death":88,"ID":43637,"CENTER_LON":4.66434841,"CENTER_LAT":50.64295176,"ADM0_VIZ_NAME":"Belgium","Short_Name_ZH":"比利时","Short_Name_FR":"Belgique","Short_Name_ES":"Bélgica","Short_Name_RU":"Бельгия","Short_Name_AR":"بلجيكا","GlobalID":"1ae9d85f-88e1-411f-b6b0-e6a8b25a2623"}},{"attributes":{"ADM0_NAME":"Norway","DateOfReport":1584921600000,"cum_conf":2371,"cum_death":8,"ID":43638,"CENTER_LON":14.07508911,"CENTER_LAT":64.44784887,"ADM0_VIZ_NAME":"Norway","Short_Name_ZH":"挪威","Short_Name_FR":"Norvège","Short_Name_ES":"Noruega","Short_Name_RU":"Норвегия","Short_Name_AR":"النرويج","GlobalID":"01360332-6f8e-4cc8-bbb3-c8a52a4304ff"}},{"attributes":{"ADM0_NAME":"Portugal","DateOfReport":1584921600000,"cum_conf":2060,"cum_death":23,"ID":43639,"CENTER_LON":-8.46736074,"CENTER_LAT":39.60269511,"ADM0_VIZ_NAME":"Portugal","Short_Name_ZH":"葡萄牙","Short_Name_FR":"Portugal","Short_Name_ES":"Portugal","Short_Name_RU":"Португалия","Short_Name_AR":"البرتغال","GlobalID":"0fa6762d-b0ad-4f1e-b611-beae7f39045d"}},{"attributes":{"ADM0_NAME":"Sweden","DateOfReport":1584921600000,"cum_conf":2016,"cum_death":25,"ID":43640,"CENTER_LON":16.74115526,"CENTER_LAT":62.78774226,"ADM0_VIZ_NAME":"Sweden","Short_Name_ZH":"瑞典","Short_Name_FR":"Suède","Short_Name_ES":"Suecia","Short_Name_RU":"Швеция","Short_Name_AR":"السويد","GlobalID":"129a3c38-d580-4ce1-b38e-729a483a9de0"}},{"attributes":{"ADM0_NAME":"Turkey","DateOfReport":1584921600000,"cum_conf":1529,"cum_death":37,"ID":43641,"CENTER_LON":35.17921811,"CENTER_LAT":39.06061856,"ADM0_VIZ_NAME":"Turkey","Short_Name_ZH":"土耳其","Short_Name_FR":"Turquie","Short_Name_ES":"Turquía","Short_Name_RU":"Турция","Short_Name_AR":"تركيا","GlobalID":"560027a7-f7c4-41cd-8f4d-e3fd2f67eac9"}},{"attributes":{"ADM0_NAME":"Denmark","DateOfReport":1584921600000,"cum_conf":1460,"cum_death":24,"ID":43642,"CENTER_LON":10.05082082,"CENTER_LAT":55.9623328,"ADM0_VIZ_NAME":"Denmark","Short_Name_ZH":"丹麦","Short_Name_FR":"Danemark","Short_Name_ES":"Dinamarca","Short_Name_RU":"Дания","Short_Name_AR":"الدانمرك","GlobalID":"c547190d-bb4d-44f9-85bc-dad6faf273f2"}},{"attributes":{"ADM0_NAME":"Israel","DateOfReport":1584921600000,"cum_conf":1238,"cum_death":1,"ID":43643,"CENTER_LON":34.96598271,"CENTER_LAT":31.35805652,"ADM0_VIZ_NAME":"Israel","Short_Name_ZH":"以色列","Short_Name_FR":"Israël","Short_Name_ES":"Israel","Short_Name_RU":"Израиль","Short_Name_AR":"إسرائيل","GlobalID":"8ef26546-266e-4b12-9537-744d24abf749"}},{"attributes":{"ADM0_NAME":"Czechia","DateOfReport":1584921600000,"cum_conf":1236,"cum_death":1,"ID":43644,"CENTER_LON":15.33833995,"CENTER_LAT":49.74303614,"ADM0_VIZ_NAME":"Czechia","Short_Name_ZH":"捷克","Short_Name_FR":"Tchéquie","Short_Name_ES":"Chequia","Short_Name_RU":"Чехия","Short_Name_AR":"تشيكيا","GlobalID":"904e71b7-bb0b-44fd-b07c-e2b31aa54b07"}},{"attributes":{"ADM0_NAME":"Ireland","DateOfReport":1584921600000,"cum_conf":1125,"cum_death":6,"ID":43645,"CENTER_LON":-8.1515763,"CENTER_LAT":53.17708682,"ADM0_VIZ_NAME":"Ireland","Short_Name_ZH":"爱尔兰","Short_Name_FR":"Irlande","Short_Name_ES":"Irlanda","Short_Name_RU":"Ирландия","Short_Name_AR":"آيرلندا","GlobalID":"0c91946e-e811-4853-a2cf-dc2280e733c5"}},{"attributes":{"ADM0_NAME":"Luxembourg","DateOfReport":1584921600000,"cum_conf":875,"cum_death":8,"ID":43646,"CENTER_LON":6.08754416,"CENTER_LAT":49.77096396,"ADM0_VIZ_NAME":"Luxembourg","Short_Name_ZH":"卢森堡","Short_Name_FR":"Luxembourg","Short_Name_ES":"Luxemburgo","Short_Name_RU":"Люксембург","Short_Name_AR":"لكسمبرغ","GlobalID":"e4095791-2f74-4eeb-9745-a5bfa9c582b2"}},{"attributes":{"ADM0_NAME":"Poland","DateOfReport":1584921600000,"cum_conf":749,"cum_death":8,"ID":43647,"CENTER_LON":19.40092017,"CENTER_LAT":52.12472405,"ADM0_VIZ_NAME":"Poland","Short_Name_ZH":"波兰","Short_Name_FR":"Pologne","Short_Name_ES":"Polonia","Short_Name_RU":"Польша","Short_Name_AR":"بولندا","GlobalID":"153cbd6f-7b74-4b2c-8489-754a93d64fb8"}},{"attributes":{"ADM0_NAME":"Finland","DateOfReport":1584921600000,"cum_conf":700,"cum_death":1,"ID":43648,"CENTER_LON":26.2588423,"CENTER_LAT":64.49433129,"ADM0_VIZ_NAME":"Finland","Short_Name_ZH":"芬兰","Short_Name_FR":"Finlande","Short_Name_ES":"Finlandia","Short_Name_RU":"Финляндия","Short_Name_AR":"فنلندا","GlobalID":"a4204a5f-9a80-4c85-980a-50795a09e245"}},{"attributes":{"ADM0_NAME":"Greece","DateOfReport":1584921600000,"cum_conf":695,"cum_death":17,"ID":43649,"CENTER_LON":22.9879848,"CENTER_LAT":39.04452874,"ADM0_VIZ_NAME":"Greece","Short_Name_ZH":"希腊","Short_Name_FR":"Grèce","Short_Name_ES":"Grecia","Short_Name_RU":"Греция","Short_Name_AR":"اليونان","GlobalID":"7eca40d4-2e2f-4abb-809d-690922273c90"}},{"attributes":{"ADM0_NAME":"Iceland","DateOfReport":1584921600000,"cum_conf":588,"cum_death":2,"ID":43650,"CENTER_LON":-18.6057026,"CENTER_LAT":64.99764998,"ADM0_VIZ_NAME":"Iceland","Short_Name_ZH":"冰岛","Short_Name_FR":"Islande","Short_Name_ES":"Islandia","Short_Name_RU":"Исландия","Short_Name_AR":"آيسلندا","GlobalID":"9dcc63e7-1502-4333-a1cb-5c016fade38b"}},{"attributes":{"ADM0_NAME":"Romania","DateOfReport":1584921600000,"cum_conf":576,"cum_death":7,"ID":43651,"CENTER_LON":24.96990758,"CENTER_LAT":45.84360558,"ADM0_VIZ_NAME":"Romania","Short_Name_ZH":"罗马尼亚","Short_Name_FR":"Roumanie","Short_Name_ES":"Rumania","Short_Name_RU":"Румыния","Short_Name_AR":"رومانيا","GlobalID":"a5a202b3-e6ab-4ee5-a38b-e3ca0bdae86a"}},{"attributes":{"ADM0_NAME":"Slovenia","DateOfReport":1584921600000,"cum_conf":442,"cum_death":1,"ID":43652,"CENTER_LON":14.82707444,"CENTER_LAT":46.12355026,"ADM0_VIZ_NAME":"Slovenia","Short_Name_ZH":"斯洛文尼亚","Short_Name_FR":"Slovénie","Short_Name_ES":"Eslovenia","Short_Name_RU":"Словения","Short_Name_AR":"سلوفينيا","GlobalID":"914cdcc6-0803-4f3b-b47f-5ec9a79ef907"}},{"attributes":{"ADM0_NAME":"Russian Federation","DateOfReport":1584921600000,"cum_conf":438,"cum_death":0,"ID":43653,"CENTER_LON":96.68944215,"CENTER_LAT":61.9882456,"ADM0_VIZ_NAME":"Russian Federation","Short_Name_ZH":"俄罗斯联邦","Short_Name_FR":"Fédération de Russie","Short_Name_ES":"Federación de Rusia","Short_Name_RU":"Российская Федерация","Short_Name_AR":"الاتحاد الروسي","GlobalID":"937ddc1a-5874-486a-b824-1726d45e0d33"}},{"attributes":{"ADM0_NAME":"Estonia","DateOfReport":1584921600000,"cum_conf":352,"cum_death":0,"ID":43654,"CENTER_LON":25.5257709,"CENTER_LAT":58.67400787,"ADM0_VIZ_NAME":"Estonia","Short_Name_ZH":"爱沙尼亚","Short_Name_FR":"Estonie","Short_Name_ES":"Estonia","Short_Name_RU":"Эстония","Short_Name_AR":"إستونيا","GlobalID":"e2d375e3-42a5-41c0-ac8b-59da908858cd"}},{"attributes":{"ADM0_NAME":"Croatia","DateOfReport":1584921600000,"cum_conf":306,"cum_death":0,"ID":43655,"CENTER_LON":16.40934249,"CENTER_LAT":45.04363696,"ADM0_VIZ_NAME":"Croatia","Short_Name_ZH":"克罗地亚","Short_Name_FR":"Croatie","Short_Name_ES":"Croacia","Short_Name_RU":"Хорватия","Short_Name_AR":"كرواتيا","GlobalID":"d888afa6-e3d1-45d6-9153-2f9642fa2fc4"}},{"attributes":{"ADM0_NAME":"Serbia","DateOfReport":1584921600000,"cum_conf":249,"cum_death":2,"ID":43656,"CENTER_LON":20.81133086,"CENTER_LAT":44.03387222,"ADM0_VIZ_NAME":"Serbia","Short_Name_ZH":"塞尔维亚","Short_Name_FR":"Serbie","Short_Name_ES":"Serbia","Short_Name_RU":"Сербия","Short_Name_AR":"صربيا","GlobalID":"2b770597-e833-478b-9a14-49def41e8020"}},{"attributes":{"ADM0_NAME":"Armenia","DateOfReport":1584921600000,"cum_conf":235,"cum_death":0,"ID":43657,"CENTER_LON":44.94793424,"CENTER_LAT":40.28641688,"ADM0_VIZ_NAME":"Armenia","Short_Name_ZH":"亚美尼亚","Short_Name_FR":"Arménie","Short_Name_ES":"Armenia","Short_Name_RU":"Армения","Short_Name_AR":"أرمينيا","GlobalID":"39e0d873-365a-4c53-9657-9608b6c8765b"}},{"attributes":{"ADM0_NAME":"Bulgaria","DateOfReport":1584921600000,"cum_conf":201,"cum_death":3,"ID":43658,"CENTER_LON":25.23475756,"CENTER_LAT":42.76032141,"ADM0_VIZ_NAME":"Bulgaria","Short_Name_ZH":"保加利亚","Short_Name_FR":"Bulgarie","Short_Name_ES":"Bulgaria","Short_Name_RU":"Болгария","Short_Name_AR":"بلغاريا","GlobalID":"c62c1bac-db44-4cd4-8317-043a88188882"}},{"attributes":{"ADM0_NAME":"Slovakia","DateOfReport":1584921600000,"cum_conf":191,"cum_death":0,"ID":43659,"CENTER_LON":19.49145028,"CENTER_LAT":48.7073588,"ADM0_VIZ_NAME":"Slovakia","Short_Name_ZH":"斯洛伐克","Short_Name_FR":"Slovaquie","Short_Name_ES":"Eslovaquia","Short_Name_RU":"Словакия","Short_Name_AR":"سلوفاكيا","GlobalID":"1fe05190-a66b-4219-94a5-071f5c14a30e"}},{"attributes":{"ADM0_NAME":"Hungary","DateOfReport":1584921600000,"cum_conf":187,"cum_death":8,"ID":43660,"CENTER_LON":19.41342813,"CENTER_LAT":47.16647906,"ADM0_VIZ_NAME":"Hungary","Short_Name_ZH":"匈牙利","Short_Name_FR":"Hongrie","Short_Name_ES":"Hungría","Short_Name_RU":"Венгрия","Short_Name_AR":"هنغاريا","GlobalID":"c60b8bd4-b54f-4e0e-827f-a8a3ff9c2b66"}},{"attributes":{"ADM0_NAME":"San Marino","DateOfReport":1584921600000,"cum_conf":187,"cum_death":20,"ID":43661,"CENTER_LON":12.46035762,"CENTER_LAT":43.94191474,"ADM0_VIZ_NAME":"San Marino","Short_Name_ZH":"圣马力诺","Short_Name_FR":"Saint-Marin","Short_Name_ES":"San Marino","Short_Name_RU":"Сан-Марино","Short_Name_AR":"سان مارينو","GlobalID":"eab4f132-22a9-4154-8ad6-5ad1371d66ec"}},{"attributes":{"ADM0_NAME":"Latvia","DateOfReport":1584921600000,"cum_conf":180,"cum_death":0,"ID":43662,"CENTER_LON":24.92915332,"CENTER_LAT":56.85766939,"ADM0_VIZ_NAME":"Latvia","Short_Name_ZH":"拉脱维亚","Short_Name_FR":"Lettonie","Short_Name_ES":"Letonia","Short_Name_RU":"Латвия","Short_Name_AR":"لاتفيا","GlobalID":"fbf07a9e-d1b3-44d8-b275-124b8a439dc4"}},{"attributes":{"ADM0_NAME":"Lithuania","DateOfReport":1584921600000,"cum_conf":179,"cum_death":1,"ID":43663,"CENTER_LON":23.89683075,"CENTER_LAT":55.33585013,"ADM0_VIZ_NAME":"Lithuania","Short_Name_ZH":"立陶宛","Short_Name_FR":"Lituanie","Short_Name_ES":"Lituania","Short_Name_RU":"Литва","Short_Name_AR":"ليتوانيا","GlobalID":"67adce72-0215-48d1-87d1-863072a2c8be"}},{"attributes":{"ADM0_NAME":"Andorra","DateOfReport":1584921600000,"cum_conf":164,"cum_death":1,"ID":43664,"CENTER_LON":1.57568833,"CENTER_LAT":42.54858297,"ADM0_VIZ_NAME":"Andorra","Short_Name_ZH":"安道尔","Short_Name_FR":"Andorre","Short_Name_ES":"Andorra","Short_Name_RU":"Андорра","Short_Name_AR":"أندورا","GlobalID":"c636fd69-b888-4ce9-9347-4237e6201d6a"}},{"attributes":{"ADM0_NAME":"North Macedonia","DateOfReport":1584921600000,"cum_conf":136,"cum_death":2,"ID":43665,"CENTER_LON":21.6991485,"CENTER_LAT":41.59922075,"ADM0_VIZ_NAME":"North Macedonia","Short_Name_ZH":"北马其顿","Short_Name_FR":"Macédoine du Nord","Short_Name_ES":"Macedonia del Norte","Short_Name_RU":"Северная Македония","Short_Name_AR":"مقدونيا الشمالية","GlobalID":"d921b370-cbf7-4f91-a685-4e39c0975e83"}},{"attributes":{"ADM0_NAME":"Bosnia and Herzegovina","DateOfReport":1584921600000,"cum_conf":131,"cum_death":1,"ID":43666,"CENTER_LON":17.78861095,"CENTER_LAT":44.16643966,"ADM0_VIZ_NAME":"Bosnia and Herzegovina","Short_Name_ZH":"波斯尼亚和黑塞哥维那","Short_Name_FR":"Bosnie-Herzégovine","Short_Name_ES":"Bosnia y Herzegovina","Short_Name_RU":"Босния и Герцеговина","Short_Name_AR":"البوسنة والهرسك","GlobalID":"35663d35-e7be-450e-a99c-6d0839f433d3"}},{"attributes":{"ADM0_NAME":"Albania","DateOfReport":1584921600000,"cum_conf":123,"cum_death":4,"ID":43667,"CENTER_LON":20.06917817,"CENTER_LAT":41.14595803,"ADM0_VIZ_NAME":"Albania","Short_Name_ZH":"阿尔巴尼亚","Short_Name_FR":"Albanie","Short_Name_ES":"Albania","Short_Name_RU":"Албания","Short_Name_AR":"ألبانيا","GlobalID":"141e0947-fd4c-41d1-b6be-7ca64b011cb0"}},{"attributes":{"ADM0_NAME":"Faroe Islands","DateOfReport":1584921600000,"cum_conf":118,"cum_death":0,"ID":43668,"CENTER_LON":-6.86363602,"CENTER_LAT":62.050314,"ADM0_VIZ_NAME":"Faroe Islands","Short_Name_ZH":"法罗群岛\r\n","Short_Name_FR":null,"Short_Name_ES":null,"Short_Name_RU":null,"Short_Name_AR":null,"GlobalID":"c6bfcefc-d6a1-494e-b48e-85bc96c5814a"}},{"attributes":{"ADM0_NAME":"Cyprus","DateOfReport":1584921600000,"cum_conf":116,"cum_death":0,"ID":43669,"CENTER_LON":33.21863708,"CENTER_LAT":35.04299175,"ADM0_VIZ_NAME":"Cyprus","Short_Name_ZH":"塞浦路斯","Short_Name_FR":"Chypre","Short_Name_ES":"Chipre","Short_Name_RU":"Кипр","Short_Name_AR":"قبرص","GlobalID":"bdbc3e6d-ef4b-4daf-a621-faee1fe304ac"}},{"attributes":{"ADM0_NAME":"Republic of Moldova","DateOfReport":1584921600000,"cum_conf":109,"cum_death":1,"ID":43670,"CENTER_LON":28.47434317,"CENTER_LAT":47.19332561,"ADM0_VIZ_NAME":"Republic of Moldova","Short_Name_ZH":"摩尔多瓦共和国","Short_Name_FR":"République de Moldova","Short_Name_ES":"la República de Moldova","Short_Name_RU":"Республика Молдова","Short_Name_AR":" جمهورية مولدوفا","GlobalID":"f043a54a-cd7e-4e90-88fd-dbca934317d1"}},{"attributes":{"ADM0_NAME":"Malta","DateOfReport":1584921600000,"cum_conf":107,"cum_death":0,"ID":43671,"CENTER_LON":14.40457358,"CENTER_LAT":35.92036651,"ADM0_VIZ_NAME":"Malta","Short_Name_ZH":"马耳他","Short_Name_FR":"Malte","Short_Name_ES":"Malta","Short_Name_RU":"Мальта","Short_Name_AR":"مالطة","GlobalID":"17115342-0e43-406d-a48f-5616b382f3bc"}},{"attributes":{"ADM0_NAME":"Ukraine","DateOfReport":1584921600000,"cum_conf":84,"cum_death":3,"ID":43672,"CENTER_LON":31.38784552,"CENTER_LAT":49.01609429,"ADM0_VIZ_NAME":"Ukraine","Short_Name_ZH":"乌克兰","Short_Name_FR":"Ukraine","Short_Name_ES":"Ucrania","Short_Name_RU":"Украина","Short_Name_AR":"أوكرانيا","GlobalID":"7091b8c7-b695-4b6f-a582-9e14cfeb9486"}},{"attributes":{"ADM0_NAME":"Belarus","DateOfReport":1584921600000,"cum_conf":81,"cum_death":0,"ID":43673,"CENTER_LON":28.04696448,"CENTER_LAT":53.54021951,"ADM0_VIZ_NAME":"Belarus","Short_Name_ZH":"白俄罗斯","Short_Name_FR":"Bélarus","Short_Name_ES":"Belarús","Short_Name_RU":"Беларусь","Short_Name_AR":"بيلاروس","GlobalID":"add7cd54-7d95-40aa-b15a-658abd1abec3"}},{"attributes":{"ADM0_NAME":"Azerbaijan","DateOfReport":1584921600000,"cum_conf":72,"cum_death":1,"ID":43674,"CENTER_LON":47.53232681,"CENTER_LAT":40.2922195,"ADM0_VIZ_NAME":"Azerbaijan","Short_Name_ZH":"阿塞拜疆","Short_Name_FR":"Azerbaïdjan","Short_Name_ES":"Azerbaiyán","Short_Name_RU":"Азербайджан","Short_Name_AR":"أذربيجان","GlobalID":"f5f6aaf7-4e41-4c80-b246-f6559fbc7402"}},{"attributes":{"ADM0_NAME":"Georgia","DateOfReport":1584921600000,"cum_conf":67,"cum_death":0,"ID":43675,"CENTER_LON":43.51757115,"CENTER_LAT":42.17632583,"ADM0_VIZ_NAME":"Georgia","Short_Name_ZH":"格鲁吉亚","Short_Name_FR":"Géorgie","Short_Name_ES":"Georgia","Short_Name_RU":"Грузия","Short_Name_AR":"جورجيا","GlobalID":"31a45d31-9a80-4e1a-aa3b-01a260dd717a"}},{"attributes":{"ADM0_NAME":"Kazakhstan","DateOfReport":1584921600000,"cum_conf":63,"cum_death":0,"ID":43676,"CENTER_LON":67.30130018,"CENTER_LAT":48.1600427,"ADM0_VIZ_NAME":"Kazakhstan","Short_Name_ZH":"哈萨克斯坦","Short_Name_FR":"Kazakhstan","Short_Name_ES":"Kazajstán","Short_Name_RU":"Казахстан","Short_Name_AR":"كازاخستان","GlobalID":"8468cad9-4d51-49eb-aa9e-024e01453440"}},{"attributes":{"ADM0_NAME":"Kosovo[1]","DateOfReport":1584921600000,"cum_conf":61,"cum_death":1,"ID":43677,"CENTER_LON":null,"CENTER_LAT":null,"ADM0_VIZ_NAME":"Kosovo[1]","Short_Name_ZH":null,"Short_Name_FR":null,"Short_Name_ES":null,"Short_Name_RU":null,"Short_Name_AR":null,"GlobalID":"8df8ad12-8217-4728-9693-e00e10d3cfb8"}},{"attributes":{"ADM0_NAME":"Liechtenstein","DateOfReport":1584921600000,"cum_conf":46,"cum_death":0,"ID":43678,"CENTER_LON":9.55526493,"CENTER_LAT":47.15259548,"ADM0_VIZ_NAME":"Liechtenstein","Short_Name_ZH":"列支敦士登\r\n","Short_Name_FR":null,"Short_Name_ES":null,"Short_Name_RU":null,"Short_Name_AR":null,"GlobalID":"4a1fd71f-a171-42a1-af82-712609b5721e"}},{"attributes":{"ADM0_NAME":"Uzbekistan","DateOfReport":1584921600000,"cum_conf":46,"cum_death":0,"ID":43679,"CENTER_LON":63.16950578,"CENTER_LAT":41.75041661,"ADM0_VIZ_NAME":"Uzbekistan","Short_Name_ZH":"乌兹别克斯坦","Short_Name_FR":"Ouzbékistan","Short_Name_ES":"Uzbekistán","Short_Name_RU":"Узбекистан","Short_Name_AR":"أوزبكستان","GlobalID":"38aeabd3-570f-4091-818e-a0f2769ec1ef"}},{"attributes":{"ADM0_NAME":"Monaco","DateOfReport":1584921600000,"cum_conf":23,"cum_death":0,"ID":43680,"CENTER_LON":7.41201715,"CENTER_LAT":43.75034615,"ADM0_VIZ_NAME":"Monaco","Short_Name_ZH":"摩纳哥","Short_Name_FR":"Monaco","Short_Name_ES":"Mónaco","Short_Name_RU":"Монако","Short_Name_AR":"موناكو","GlobalID":"f071dc5e-38d4-449f-9ef9-f707f4a4f97c"}},{"attributes":{"ADM0_NAME":"Montenegro","DateOfReport":1584921600000,"cum_conf":22,"cum_death":0,"ID":43681,"CENTER_LON":19.26458919,"CENTER_LAT":42.79659203,"ADM0_VIZ_NAME":"Montenegro","Short_Name_ZH":"黑山","Short_Name_FR":"Monténégro","Short_Name_ES":"Montenegro","Short_Name_RU":"Черногория","Short_Name_AR":"الجبل الأسود","GlobalID":"8b6be9b3-fb65-47d0-84d7-9c455f599564"}},{"attributes":{"ADM0_NAME":"Guernsey","DateOfReport":1584921600000,"cum_conf":20,"cum_death":0,"ID":43682,"CENTER_LON":-2.57582282,"CENTER_LAT":49.4590463,"ADM0_VIZ_NAME":"Guernsey","Short_Name_ZH":"根西岛\r\n","Short_Name_FR":null,"Short_Name_ES":null,"Short_Name_RU":null,"Short_Name_AR":null,"GlobalID":"24447646-10ab-4ecf-8f67-be639cd62d7b"}},{"attributes":{"ADM0_NAME":"Jersey","DateOfReport":1584921600000,"cum_conf":18,"cum_death":0,"ID":43683,"CENTER_LON":-2.12891773,"CENTER_LAT":49.21949816,"ADM0_VIZ_NAME":"Jersey","Short_Name_ZH":"泽西岛\r\n","Short_Name_FR":null,"Short_Name_ES":null,"Short_Name_RU":null,"Short_Name_AR":null,"GlobalID":"e5f18e8a-b68e-417b-9eef-5e4b0489f203"}},{"attributes":{"ADM0_NAME":"Kyrgyzstan","DateOfReport":1584921600000,"cum_conf":16,"cum_death":0,"ID":43684,"CENTER_LON":74.555493,"CENTER_LAT":41.46490717,"ADM0_VIZ_NAME":"Kyrgyzstan","Short_Name_ZH":"吉尔吉斯斯坦","Short_Name_FR":"Kirghizistan","Short_Name_ES":"Kirguistán","Short_Name_RU":"Кыргызстан","Short_Name_AR":"قيرغيزستان","GlobalID":"06ccbbe5-71fb-438a-83a1-c0de59049bbc"}},{"attributes":{"ADM0_NAME":"Gibraltar","DateOfReport":1584921600000,"cum_conf":15,"cum_death":0,"ID":43685,"CENTER_LON":-5.34488893,"CENTER_LAT":36.1381932,"ADM0_VIZ_NAME":"Gibraltar","Short_Name_ZH":"直布罗陀\r\n","Short_Name_FR":null,"Short_Name_ES":null,"Short_Name_RU":null,"Short_Name_AR":null,"GlobalID":"08c7ddb4-1d7b-4046-9876-4ecc1be58624"}},{"attributes":{"ADM0_NAME":"Isle of Man","DateOfReport":1584921600000,"cum_conf":13,"cum_death":0,"ID":43686,"CENTER_LON":-4.52652992,"CENTER_LAT":54.2288333,"ADM0_VIZ_NAME":"Isle of Man","Short_Name_ZH":"马恩岛\r\n","Short_Name_FR":null,"Short_Name_ES":null,"Short_Name_RU":null,"Short_Name_AR":null,"GlobalID":"8c1e416f-d101-4c17-ba38-fae4f1bf9e48"}},{"attributes":{"ADM0_NAME":"Greenland","DateOfReport":1584921600000,"cum_conf":4,"cum_death":0,"ID":43687,"CENTER_LON":-41.39096667,"CENTER_LAT":74.71895353,"ADM0_VIZ_NAME":"Greenland","Short_Name_ZH":"格陵兰岛\r\n","Short_Name_FR":null,"Short_Name_ES":null,"Short_Name_RU":null,"Short_Name_AR":null,"GlobalID":"19cad62c-e8bb-42ba-bedd-720039cfb1c9"}},{"attributes":{"ADM0_NAME":"Holy See","DateOfReport":1584921600000,"cum_conf":1,"cum_death":0,"ID":43688,"CENTER_LON":12.48571114,"CENTER_LAT":41.89324195,"ADM0_VIZ_NAME":"Holy See","Short_Name_ZH":"梵蒂冈\r\n","Short_Name_FR":null,"Short_Name_ES":null,"Short_Name_RU":null,"Short_Name_AR":null,"GlobalID":"424c3d2c-fb88-4425-9212-aa1c57140f6a"}},{"attributes":{"ADM0_NAME":"Thailand","DateOfReport":1584921600000,"cum_conf":827,"cum_death":4,"ID":43689,"CENTER_LON":101.01490782,"CENTER_LAT":15.11989876,"ADM0_VIZ_NAME":"Thailand","Short_Name_ZH":"泰国","Short_Name_FR":"Thaïlande","Short_Name_ES":"Tailandia","Short_Name_RU":"Таиланд","Short_Name_AR":"تايلند","GlobalID":"3d50fa1c-54e4-4899-ab6b-92c8fa004b46"}},{"attributes":{"ADM0_NAME":"Indonesia","DateOfReport":1584921600000,"cum_conf":579,"cum_death":49,"ID":43690,"CENTER_LON":117.31101692,"CENTER_LAT":-2.22903453,"ADM0_VIZ_NAME":"Indonesia","Short_Name_ZH":"印度尼西亚","Short_Name_FR":"Indonésie","Short_Name_ES":"Indonesia","Short_Name_RU":"Индонезия","Short_Name_AR":"إندونيسيا","GlobalID":"4ac3cfcb-a8d9-400e-9ec7-a4f9155eccd2"}},{"attributes":{"ADM0_NAME":"India","DateOfReport":1584921600000,"cum_conf":519,"cum_death":9,"ID":43691,"CENTER_LON":79.6188183,"CENTER_LAT":22.88132057,"ADM0_VIZ_NAME":"India","Short_Name_ZH":"印度","Short_Name_FR":"Inde","Short_Name_ES":"India","Short_Name_RU":"Индия","Short_Name_AR":"الهند","GlobalID":"9d5e9ecb-347a-4f36-9c67-1499b7911168"}},{"attributes":{"ADM0_NAME":"Sri Lanka","DateOfReport":1584921600000,"cum_conf":97,"cum_death":0,"ID":43692,"CENTER_LON":80.70426262,"CENTER_LAT":7.61236243,"ADM0_VIZ_NAME":"Sri Lanka","Short_Name_ZH":"斯里兰卡","Short_Name_FR":"Sri Lanka","Short_Name_ES":"Sri Lanka","Short_Name_RU":"Шри-Ланка","Short_Name_AR":"سري لانكا","GlobalID":"7ba64783-3cdb-4714-b996-4aa996ea23ac"}},{"attributes":{"ADM0_NAME":"Bangladesh","DateOfReport":1584921600000,"cum_conf":39,"cum_death":4,"ID":43693,"CENTER_LON":90.27092576,"CENTER_LAT":23.8330072,"ADM0_VIZ_NAME":"Bangladesh","Short_Name_ZH":"孟加拉国","Short_Name_FR":"Bangladesh","Short_Name_ES":"Bangladesh","Short_Name_RU":"Бангладеш","Short_Name_AR":"بنغلاديش","GlobalID":"a539e766-aa1b-481d-bcff-6919008ae708"}},{"attributes":{"ADM0_NAME":"Maldives","DateOfReport":1584921600000,"cum_conf":13,"cum_death":0,"ID":43694,"CENTER_LON":73.25178478,"CENTER_LAT":3.37481932,"ADM0_VIZ_NAME":"Maldives","Short_Name_ZH":"马尔代夫","Short_Name_FR":"Maldives","Short_Name_ES":"Maldivas","Short_Name_RU":"Мальдивские Острова","Short_Name_AR":"ملديف","GlobalID":"64d97825-f66c-40ea-b76a-fa8623765c79"}},{"attributes":{"ADM0_NAME":"Bhutan","DateOfReport":1584921600000,"cum_conf":2,"cum_death":0,"ID":43695,"CENTER_LON":90.42943275,"CENTER_LAT":27.41546082,"ADM0_VIZ_NAME":"Bhutan","Short_Name_ZH":"不丹","Short_Name_FR":"Bhoutan","Short_Name_ES":"Bhután","Short_Name_RU":"Бутан","Short_Name_AR":"بوتان","GlobalID":"a51c8e5d-28f8-4d15-b181-b3e57109950b"}},{"attributes":{"ADM0_NAME":"Myanmar","DateOfReport":1584921600000,"cum_conf":2,"cum_death":0,"ID":43696,"CENTER_LON":96.50868206,"CENTER_LAT":21.14009536,"ADM0_VIZ_NAME":"Myanmar","Short_Name_ZH":"缅甸","Short_Name_FR":"Myanmar","Short_Name_ES":"Myanmar","Short_Name_RU":"Мьянма","Short_Name_AR":"ميانمار","GlobalID":"c692210d-b9dd-45e5-b922-98a05ffbe129"}},{"attributes":{"ADM0_NAME":"Nepal","DateOfReport":1584921600000,"cum_conf":2,"cum_death":0,"ID":43697,"CENTER_LON":83.93851707,"CENTER_LAT":28.25300785,"ADM0_VIZ_NAME":"Nepal","Short_Name_ZH":"尼泊尔","Short_Name_FR":"Népal","Short_Name_ES":"Nepal","Short_Name_RU":"Непал","Short_Name_AR":"نيبال","GlobalID":"7de8a450-2f7e-4ad4-9cc6-149b2cb032d1"}},{"attributes":{"ADM0_NAME":"Timor-Leste","DateOfReport":1584921600000,"cum_conf":1,"cum_death":0,"ID":43698,"CENTER_LON":125.8609961,"CENTER_LAT":-8.82052123,"ADM0_VIZ_NAME":"Timor-Leste","Short_Name_ZH":"东帝汶","Short_Name_FR":"Timor-Leste","Short_Name_ES":"Timor-Leste","Short_Name_RU":"Тимор-Лешти","Short_Name_AR":"تيمور- ليشتي","GlobalID":"87aad003-7ca4-4ad5-a289-f903fdbcb0f3"}},{"attributes":{"ADM0_NAME":"Iran (Islamic Republic of)","DateOfReport":1584921600000,"cum_conf":24811,"cum_death":1934,"ID":43699,"CENTER_LON":54.30141376,"CENTER_LAT":32.56479959,"ADM0_VIZ_NAME":"Iran (Islamic Republic of)","Short_Name_ZH":"伊朗（伊斯兰共和国）","Short_Name_FR":"Iran (République islamique d')","Short_Name_ES":"Irán (República Islámica del)","Short_Name_RU":"Иран (Исламская Республика)","Short_Name_AR":"إيران (جمهورية - الإسلامية)","GlobalID":"68d3d27f-4e98-4ebe-96ff-639dd5d0c658"}},{"attributes":{"ADM0_NAME":"Pakistan","DateOfReport":1584921600000,"cum_conf":887,"cum_death":6,"ID":43700,"CENTER_LON":69.38581881,"CENTER_LAT":29.96678898,"ADM0_VIZ_NAME":"Pakistan","Short_Name_ZH":"巴基斯坦","Short_Name_FR":"Pakistan","Short_Name_ES":"Pakistán","Short_Name_RU":"Пакистан","Short_Name_AR":"باكستان","GlobalID":"9c6eb081-67d0-44d4-b87f-a5a994e7f930"}},{"attributes":{"ADM0_NAME":"Saudi Arabia","DateOfReport":1584921600000,"cum_conf":767,"cum_death":1,"ID":43701,"CENTER_LON":44.57044965,"CENTER_LAT":24.08088192,"ADM0_VIZ_NAME":"Saudi Arabia","Short_Name_ZH":"沙特阿拉伯","Short_Name_FR":"Arabie saoudite","Short_Name_ES":"Arabia Saudita","Short_Name_RU":"Саудовская Аравия","Short_Name_AR":"المملكة العربية السعودية","GlobalID":"bc2d8653-eef6-47de-8ac3-32f42403e204"}},{"attributes":{"ADM0_NAME":"Qatar","DateOfReport":1584921600000,"cum_conf":501,"cum_death":0,"ID":43702,"CENTER_LON":51.19120083,"CENTER_LAT":25.31580997,"ADM0_VIZ_NAME":"Qatar","Short_Name_ZH":"卡塔尔","Short_Name_FR":"Qatar","Short_Name_ES":"Qatar","Short_Name_RU":"Катар","Short_Name_AR":"قطر","GlobalID":"60ee5779-485b-498b-969b-ae1f1fbdb5c4"}},{"attributes":{"ADM0_NAME":"Bahrain","DateOfReport":1584921600000,"cum_conf":390,"cum_death":3,"ID":43703,"CENTER_LON":50.56248915,"CENTER_LAT":26.01947392,"ADM0_VIZ_NAME":"Bahrain","Short_Name_ZH":"巴林","Short_Name_FR":"Bahreïn","Short_Name_ES":"Bahrein","Short_Name_RU":"Бахрейн","Short_Name_AR":"البحرين","GlobalID":"a0cbb7d4-fd7f-4d68-af15-3a8dfd6f77bd"}},{"attributes":{"ADM0_NAME":"Egypt","DateOfReport":1584921600000,"cum_conf":366,"cum_death":19,"ID":43704,"CENTER_LON":29.78210708,"CENTER_LAT":26.5565646,"ADM0_VIZ_NAME":"Egypt","Short_Name_ZH":"埃及","Short_Name_FR":"Égypte","Short_Name_ES":"Egipto","Short_Name_RU":"Египет","Short_Name_AR":"مصر","GlobalID":"8779f9ec-44ce-4aed-81c5-dcdbc98b39dc"}},{"attributes":{"ADM0_NAME":"Iraq","DateOfReport":1584921600000,"cum_conf":316,"cum_death":27,"ID":43705,"CENTER_LON":43.77224552,"CENTER_LAT":33.04800654,"ADM0_VIZ_NAME":"Iraq","Short_Name_ZH":"伊拉克","Short_Name_FR":"Iraq","Short_Name_ES":"Iraq","Short_Name_RU":"Ирак","Short_Name_AR":"العراق","GlobalID":"3403909c-3b64-433a-b03f-69a36bd60639"}},{"attributes":{"ADM0_NAME":"Lebanon","DateOfReport":1584921600000,"cum_conf":304,"cum_death":4,"ID":43706,"CENTER_LON":35.88806123,"CENTER_LAT":33.92039304,"ADM0_VIZ_NAME":"Lebanon","Short_Name_ZH":"黎巴嫩","Short_Name_FR":"Liban","Short_Name_ES":"Líbano","Short_Name_RU":"Ливан","Short_Name_AR":"لبنان","GlobalID":"21b6ace3-1f31-423a-ac43-0b449c1fa097"}},{"attributes":{"ADM0_NAME":"United Arab Emirates","DateOfReport":1584921600000,"cum_conf":248,"cum_death":2,"ID":43707,"CENTER_LON":54.33219878,"CENTER_LAT":23.91267254,"ADM0_VIZ_NAME":"United Arab Emirates","Short_Name_ZH":"阿拉伯联合酋长国","Short_Name_FR":"Émirats arabes unis","Short_Name_ES":"Emiratos Árabes Unidos","Short_Name_RU":"Объединенные Арабские Эмираты","Short_Name_AR":"الإمارات العربية المتحدة","GlobalID":"71c335d1-7673-438b-92ee-6bf43d3545a7"}},{"attributes":{"ADM0_NAME":"Kuwait","DateOfReport":1584921600000,"cum_conf":191,"cum_death":0,"ID":43708,"CENTER_LON":47.59355128,"CENTER_LAT":29.34250906,"ADM0_VIZ_NAME":"Kuwait","Short_Name_ZH":"科威特","Short_Name_FR":"Koweït","Short_Name_ES":"Kuwait","Short_Name_RU":"Кувейт","Short_Name_AR":"الكويت","GlobalID":"14592735-111d-45a0-ade7-d521d57fa76d"}},{"attributes":{"ADM0_NAME":"Morocco","DateOfReport":1584921600000,"cum_conf":143,"cum_death":4,"ID":43709,"CENTER_LON":-6.31780295,"CENTER_LAT":31.88355697,"ADM0_VIZ_NAME":"Morocco","Short_Name_ZH":"摩洛哥","Short_Name_FR":"Maroc","Short_Name_ES":"Marruecos","Short_Name_RU":"Марокко","Short_Name_AR":"المغرب","GlobalID":"fe6c91e3-8f4e-4028-980a-08839d3feb1f"}},{"attributes":{"ADM0_NAME":"Jordan","DateOfReport":1584921600000,"cum_conf":127,"cum_death":0,"ID":43710,"CENTER_LON":36.78694114,"CENTER_LAT":31.25338179,"ADM0_VIZ_NAME":"Jordan","Short_Name_ZH":"约旦","Short_Name_FR":"Jordanie","Short_Name_ES":"Jordania","Short_Name_RU":"Иордания","Short_Name_AR":"الأردن","GlobalID":"40b18b15-b79b-4ea8-932c-2cbc7310ddf0"}},{"attributes":{"ADM0_NAME":"Tunisia","DateOfReport":1584921600000,"cum_conf":114,"cum_death":3,"ID":43711,"CENTER_LON":9.56156142,"CENTER_LAT":34.11124917,"ADM0_VIZ_NAME":"Tunisia","Short_Name_ZH":"突尼斯","Short_Name_FR":"Tunisie","Short_Name_ES":"Túnez","Short_Name_RU":"Тунис","Short_Name_AR":"تونس","GlobalID":"6530e346-f68b-4c99-a176-15566d6311d7"}},{"attributes":{"ADM0_NAME":"Oman","DateOfReport":1584921600000,"cum_conf":84,"cum_death":0,"ID":43712,"CENTER_LON":56.10981747,"CENTER_LAT":20.60208368,"ADM0_VIZ_NAME":"Oman","Short_Name_ZH":"阿曼","Short_Name_FR":"Oman","Short_Name_ES":"Omán","Short_Name_RU":"Оман","Short_Name_AR":"عمان","GlobalID":"63262349-71cd-40f0-aa37-ac14aee7fda9"}},{"attributes":{"ADM0_NAME":"occupied Palestinian territory","DateOfReport":1584921600000,"cum_conf":60,"cum_death":0,"ID":43713,"CENTER_LON":35.20376878,"CENTER_LAT":31.91395114,"ADM0_VIZ_NAME":"occupied Palestinian territory","Short_Name_ZH":"巴勒斯坦被占领土\r\n","Short_Name_FR":null,"Short_Name_ES":null,"Short_Name_RU":null,"Short_Name_AR":null,"GlobalID":"ec42738b-c2f9-40fe-8d58-ea025512ad29"}},{"attributes":{"ADM0_NAME":"Afghanistan","DateOfReport":1584921600000,"cum_conf":42,"cum_death":1,"ID":43714,"CENTER_LON":66.02652977,"CENTER_LAT":33.83890116,"ADM0_VIZ_NAME":"Afghanistan","Short_Name_ZH":"阿富汗","Short_Name_FR":"Afghanistan","Short_Name_ES":"Afganistán","Short_Name_RU":"Афганистан","Short_Name_AR":"أفغانستان","GlobalID":"3673cafb-866d-47e4-b620-6ff2dd591a23"}},{"attributes":{"ADM0_NAME":"Djibouti","DateOfReport":1584921600000,"cum_conf":3,"cum_death":0,"ID":43715,"CENTER_LON":42.5779403,"CENTER_LAT":11.7498128,"ADM0_VIZ_NAME":"Djibouti","Short_Name_ZH":"吉布提","Short_Name_FR":"Djibouti","Short_Name_ES":"Djibouti","Short_Name_RU":"Джибути","Short_Name_AR":"جيبوتي","GlobalID":"4461abc7-f670-4379-9dd3-d5ee04ccd065"}},{"attributes":{"ADM0_NAME":"Sudan","DateOfReport":1584921600000,"cum_conf":3,"cum_death":1,"ID":43716,"CENTER_LON":30.00438135,"CENTER_LAT":16.04883821,"ADM0_VIZ_NAME":"Sudan","Short_Name_ZH":"苏丹","Short_Name_FR":"Soudan","Short_Name_ES":"Sudán","Short_Name_RU":"Судан","Short_Name_AR":"السودان","GlobalID":"667bb07b-d000-4aa4-af4c-a99da4baead8"}},{"attributes":{"ADM0_NAME":"Somalia","DateOfReport":1584921600000,"cum_conf":1,"cum_death":0,"ID":43717,"CENTER_LON":45.86255927,"CENTER_LAT":6.0637135,"ADM0_VIZ_NAME":"Somalia","Short_Name_ZH":"索马里","Short_Name_FR":"Somalie","Short_Name_ES":"Somalia","Short_Name_RU":"Сомали","Short_Name_AR":"الصومال","GlobalID":"bf87f717-a9ae-4629-a121-8b160032a03a"}},{"attributes":{"ADM0_NAME":"Syrian Arab Republic","DateOfReport":1584921600000,"cum_conf":1,"cum_death":0,"ID":43718,"CENTER_LON":38.50584744,"CENTER_LAT":35.01307272,"ADM0_VIZ_NAME":"Syrian Arab Republic","Short_Name_ZH":"阿拉伯叙利亚共和国","Short_Name_FR":"République arabe syrienne","Short_Name_ES":"República Árabe Siria","Short_Name_RU":"Сирийская Арабская Республика","Short_Name_AR":"الجمهورية العربية السورية","GlobalID":"d32bdf8f-af85-42d0-81b7-4824de9ceb86"}},{"attributes":{"ADM0_NAME":"United States of America","DateOfReport":1584921600000,"cum_conf":42164,"cum_death":471,"ID":43719,"CENTER_LON":-112.49356447,"CENTER_LAT":45.6954816,"ADM0_VIZ_NAME":"United States of America","Short_Name_ZH":"美利坚合众国","Short_Name_FR":"États-Unis d'Amérique","Short_Name_ES":"Estados Unidos de América","Short_Name_RU":"Соединенные Штаты Америки","Short_Name_AR":"الولايات المتحدة الأمريكية ","GlobalID":"3f36115c-1990-43c7-8b08-57efca1333fd"}},{"attributes":{"ADM0_NAME":"Brazil","DateOfReport":1584921600000,"cum_conf":1546,"cum_death":25,"ID":43720,"CENTER_LON":-53.08875436,"CENTER_LAT":-10.7722828,"ADM0_VIZ_NAME":"Brazil","Short_Name_ZH":"巴西","Short_Name_FR":"Brésil","Short_Name_ES":"Brasil","Short_Name_RU":"Бразилия","Short_Name_AR":"البرازيل","GlobalID":"5c69d15a-4a8c-4ee5-a306-447d9ae0a46c"}},{"attributes":{"ADM0_NAME":"Canada","DateOfReport":1584921600000,"cum_conf":1432,"cum_death":20,"ID":43721,"CENTER_LON":-98.26094698,"CENTER_LAT":61.3930667,"ADM0_VIZ_NAME":"Canada","Short_Name_ZH":"加拿大","Short_Name_FR":"Canada","Short_Name_ES":"Canadá","Short_Name_RU":"Канада","Short_Name_AR":"كندا","GlobalID":"be53edbb-8938-4e81-b37d-a0aebe3a7811"}},{"attributes":{"ADM0_NAME":"Ecuador","DateOfReport":1584921600000,"cum_conf":790,"cum_death":15,"ID":43722,"CENTER_LON":-78.78096177,"CENTER_LAT":-1.42528337,"ADM0_VIZ_NAME":"Ecuador","Short_Name_ZH":"厄瓜多尔","Short_Name_FR":"Équateur","Short_Name_ES":"Ecuador","Short_Name_RU":"Эквадор","Short_Name_AR":"إكوادور","GlobalID":"f92b991d-2ecb-4e33-aa4b-2f5b90d74983"}},{"attributes":{"ADM0_NAME":"Chile","DateOfReport":1584921600000,"cum_conf":746,"cum_death":1,"ID":43723,"CENTER_LON":-71.38009385,"CENTER_LAT":-37.86811922,"ADM0_VIZ_NAME":"Chile","Short_Name_ZH":"智利","Short_Name_FR":"Chili","Short_Name_ES":"Chile","Short_Name_RU":"Чили","Short_Name_AR":"شيلي","GlobalID":"f82ff50f-3e50-4d5b-93b5-c81c499d0349"}},{"attributes":{"ADM0_NAME":"Peru","DateOfReport":1584921600000,"cum_conf":395,"cum_death":2,"ID":43724,"CENTER_LON":-74.37540668,"CENTER_LAT":-9.16377133,"ADM0_VIZ_NAME":"Peru","Short_Name_ZH":"秘鲁","Short_Name_FR":"Pérou","Short_Name_ES":"Perú","Short_Name_RU":"Перу","Short_Name_AR":"بيرو","GlobalID":"07a28043-6f4e-4ea3-8b35-34cac65807c0"}},{"attributes":{"ADM0_NAME":"Mexico","DateOfReport":1584921600000,"cum_conf":370,"cum_death":4,"ID":43725,"CENTER_LON":-102.53499093,"CENTER_LAT":23.95092841,"ADM0_VIZ_NAME":"Mexico","Short_Name_ZH":"墨西哥","Short_Name_FR":"Mexique","Short_Name_ES":"México","Short_Name_RU":"Мексика","Short_Name_AR":"المكسيك","GlobalID":"4475fe2d-57bc-41dd-a231-19b894a7e761"}},{"attributes":{"ADM0_NAME":"Panama","DateOfReport":1584921600000,"cum_conf":345,"cum_death":6,"ID":43726,"CENTER_LON":-80.10906884,"CENTER_LAT":8.50544318,"ADM0_VIZ_NAME":"Panama","Short_Name_ZH":"巴拿马","Short_Name_FR":"Panama","Short_Name_ES":"Panamá","Short_Name_RU":"Панама","Short_Name_AR":"بنما","GlobalID":"5ee81e4d-efab-48ea-ad49-28effaf7a354"}},{"attributes":{"ADM0_NAME":"Colombia","DateOfReport":1584921600000,"cum_conf":277,"cum_death":3,"ID":43727,"CENTER_LON":-73.07576335,"CENTER_LAT":3.90037401,"ADM0_VIZ_NAME":"Colombia","Short_Name_ZH":"哥伦比亚","Short_Name_FR":"Colombie","Short_Name_ES":"Colombia","Short_Name_RU":"Колумбия","Short_Name_AR":"كولومبيا","GlobalID":"18d5ac64-f8a6-48d0-8dfd-08905b135dbe"}},{"attributes":{"ADM0_NAME":"Argentina","DateOfReport":1584921600000,"cum_conf":266,"cum_death":4,"ID":43728,"CENTER_LON":-65.16748474,"CENTER_LAT":-35.37667253,"ADM0_VIZ_NAME":"Argentina","Short_Name_ZH":"阿根廷 ","Short_Name_FR":"Argentine","Short_Name_ES":"Argentina","Short_Name_RU":"Аргентина","Short_Name_AR":"الأرجنتين","GlobalID":"c617792a-36da-472c-83ee-27710f7f0189"}},{"attributes":{"ADM0_NAME":"Dominican Republic","DateOfReport":1584921600000,"cum_conf":245,"cum_death":3,"ID":43729,"CENTER_LON":-70.48543447,"CENTER_LAT":18.89309386,"ADM0_VIZ_NAME":"Dominican Republic","Short_Name_ZH":"多米尼加 ","Short_Name_FR":"République dominicaine","Short_Name_ES":"República Dominicana","Short_Name_RU":"Доминиканская Республика","Short_Name_AR":"الجمهورية الدومينيكية","GlobalID":"f08aaee8-27e4-4432-91da-d6a53adb31f6"}},{"attributes":{"ADM0_NAME":"Uruguay","DateOfReport":1584921600000,"cum_conf":162,"cum_death":0,"ID":43730,"CENTER_LON":-56.01217362,"CENTER_LAT":-32.79956992,"ADM0_VIZ_NAME":"Uruguay","Short_Name_ZH":"乌拉圭","Short_Name_FR":"Uruguay","Short_Name_ES":"Uruguay","Short_Name_RU":"Уругвай","Short_Name_AR":"أوروغواي","GlobalID":"cf2b0908-0286-4b07-842d-3d5fb67ff73e"}},{"attributes":{"ADM0_NAME":"Costa Rica","DateOfReport":1584921600000,"cum_conf":158,"cum_death":2,"ID":43731,"CENTER_LON":-84.18903867,"CENTER_LAT":9.97052135,"ADM0_VIZ_NAME":"Costa Rica","Short_Name_ZH":"哥斯达黎加","Short_Name_FR":"Costa Rica","Short_Name_ES":"Costa Rica","Short_Name_RU":"Коста-Рика","Short_Name_AR":"كوستاريكا","GlobalID":"2e248460-57d5-403e-b463-c54fae12fd98"}},{"attributes":{"ADM0_NAME":"Venezuela (Bolivarian Republic of)","DateOfReport":1584921600000,"cum_conf":70,"cum_death":0,"ID":43732,"CENTER_LON":-66.16621515,"CENTER_LAT":7.12493711,"ADM0_VIZ_NAME":"Venezuela (Bolivarian Republic of)","Short_Name_ZH":"委内瑞拉(玻利瓦尔共和国)","Short_Name_FR":"Venezuela (République bolivarienne du)","Short_Name_ES":"Venezuela (República Bolivariana de)","Short_Name_RU":"Венесуэла (Боливарианская Республика)","Short_Name_AR":"فنزويلا","GlobalID":"e54ad9d1-24e5-4503-a831-0ebc0e809083"}},{"attributes":{"ADM0_NAME":"Guadeloupe","DateOfReport":1584921600000,"cum_conf":62,"cum_death":0,"ID":43733,"CENTER_LON":-61.53039242,"CENTER_LAT":16.20126357,"ADM0_VIZ_NAME":"Guadeloupe","Short_Name_ZH":"瓜德罗普岛\r\n","Short_Name_FR":null,"Short_Name_ES":null,"Short_Name_RU":null,"Short_Name_AR":null,"GlobalID":"9182df70-5e4c-420c-ad71-110dcf37e31e"}},{"attributes":{"ADM0_NAME":"Martinique","DateOfReport":1584921600000,"cum_conf":53,"cum_death":0,"ID":43734,"CENTER_LON":-61.02147382,"CENTER_LAT":14.65277419,"ADM0_VIZ_NAME":"Martinique","Short_Name_ZH":"马提尼克岛\r\n","Short_Name_FR":null,"Short_Name_ES":null,"Short_Name_RU":null,"Short_Name_AR":null,"GlobalID":"67b0af29-9f89-489e-bf4e-446b7f683620"}},{"attributes":{"ADM0_NAME":"Trinidad and Tobago","DateOfReport":1584921600000,"cum_conf":51,"cum_death":0,"ID":43735,"CENTER_LON":-61.25263722,"CENTER_LAT":10.46836429,"ADM0_VIZ_NAME":"Trinidad and Tobago","Short_Name_ZH":"特立尼达和多巴哥","Short_Name_FR":"Trinité-et-Tobago","Short_Name_ES":"Trinidad y Tabago","Short_Name_RU":"Тринидад и Тобаго ","Short_Name_AR":"ترينيداد وتوباغو","GlobalID":"eec1c725-a132-4402-9392-5e16db79ba7d"}},{"attributes":{"ADM0_NAME":"Cuba","DateOfReport":1584921600000,"cum_conf":40,"cum_death":1,"ID":43736,"CENTER_LON":-79.0381998,"CENTER_LAT":21.62142096,"ADM0_VIZ_NAME":"Cuba","Short_Name_ZH":"古巴","Short_Name_FR":"Cuba","Short_Name_ES":"Cuba","Short_Name_RU":"Куба","Short_Name_AR":"كوبا","GlobalID":"225722f0-30cd-4186-9d64-e37375702d65"}},{"attributes":{"ADM0_NAME":"Puerto Rico","DateOfReport":1584921600000,"cum_conf":31,"cum_death":2,"ID":43737,"CENTER_LON":-66.46612748,"CENTER_LAT":18.22093074,"ADM0_VIZ_NAME":"Puerto Rico","Short_Name_ZH":"波多黎各\r\n","Short_Name_FR":null,"Short_Name_ES":null,"Short_Name_RU":null,"Short_Name_AR":null,"GlobalID":"da60468a-f9a2-4174-bd02-cff0f88fd756"}},{"attributes":{"ADM0_NAME":"Honduras","DateOfReport":1584921600000,"cum_conf":30,"cum_death":0,"ID":43738,"CENTER_LON":-86.61965899,"CENTER_LAT":14.81934813,"ADM0_VIZ_NAME":"Honduras","Short_Name_ZH":"洪都拉斯","Short_Name_FR":"Honduras","Short_Name_ES":"Honduras","Short_Name_RU":"Гондурас","Short_Name_AR":"هندوراس","GlobalID":"3f6eeaba-d5f0-483b-891f-1f1761f24dce"}},{"attributes":{"ADM0_NAME":"Bolivia (Plurinational State of)","DateOfReport":1584921600000,"cum_conf":27,"cum_death":0,"ID":43739,"CENTER_LON":-64.67054847,"CENTER_LAT":-16.71510989,"ADM0_VIZ_NAME":"Bolivia (Plurinational State of)","Short_Name_ZH":"玻利维亚（多民族国）","Short_Name_FR":"Bolivie (État plurinational de)","Short_Name_ES":"Bolivia (Estado Plurinacional de)  ","Short_Name_RU":"Боливия (Многонациональное Государство)","Short_Name_AR":"بوليفيا (دولة - المتعددة القوميات)","GlobalID":"e06653b8-637c-4efb-a284-907489cb8e4c"}},{"attributes":{"ADM0_NAME":"Paraguay","DateOfReport":1584921600000,"cum_conf":22,"cum_death":1,"ID":43740,"CENTER_LON":-58.39095178,"CENTER_LAT":-23.23612887,"ADM0_VIZ_NAME":"Paraguay","Short_Name_ZH":"巴拉圭","Short_Name_FR":"Paraguay","Short_Name_ES":"Paraguay","Short_Name_RU":"Парагвай","Short_Name_AR":"باراغواي","GlobalID":"6c65146b-79f8-4484-8100-6568c2c0113e"}},{"attributes":{"ADM0_NAME":"French Guiana","DateOfReport":1584921600000,"cum_conf":20,"cum_death":0,"ID":43741,"CENTER_LON":-53.24126696,"CENTER_LAT":3.9243882,"ADM0_VIZ_NAME":"French Guiana","Short_Name_ZH":"法属圭亚那\r\n","Short_Name_FR":null,"Short_Name_ES":null,"Short_Name_RU":null,"Short_Name_AR":null,"GlobalID":"9d2e3544-4d1a-4eb0-bb58-2d36a12e9cdf"}},{"attributes":{"ADM0_NAME":"Guatemala","DateOfReport":1584921600000,"cum_conf":20,"cum_death":1,"ID":43742,"CENTER_LON":-90.3569493,"CENTER_LAT":15.7023026,"ADM0_VIZ_NAME":"Guatemala","Short_Name_ZH":"危地马拉","Short_Name_FR":"Guatemala","Short_Name_ES":"Guatemala","Short_Name_RU":"Гватемала","Short_Name_AR":"غواتيمالا","GlobalID":"1fa35327-212b-40bc-8e4b-018268530952"}},{"attributes":{"ADM0_NAME":"Jamaica","DateOfReport":1584921600000,"cum_conf":19,"cum_death":1,"ID":43743,"CENTER_LON":-77.31975081,"CENTER_LAT":18.15133064,"ADM0_VIZ_NAME":"Jamaica","Short_Name_ZH":"牙买加","Short_Name_FR":"Jamaïque","Short_Name_ES":"Jamaica","Short_Name_RU":"Ямайка","Short_Name_AR":"جامايكا","GlobalID":"34401438-7cc4-4508-a55c-7f4dbbb570f6"}},{"attributes":{"ADM0_NAME":"Barbados","DateOfReport":1584921600000,"cum_conf":17,"cum_death":0,"ID":43744,"CENTER_LON":-59.56212696,"CENTER_LAT":13.17879902,"ADM0_VIZ_NAME":"Barbados","Short_Name_ZH":"巴巴多斯","Short_Name_FR":"Barbade","Short_Name_ES":"Barbados","Short_Name_RU":"Барбадос","Short_Name_AR":"بربادوس","GlobalID":"d0458116-b6f5-44cf-9412-ed78af5483a3"}},{"attributes":{"ADM0_NAME":"United States Virgin Islands","DateOfReport":1584921600000,"cum_conf":17,"cum_death":0,"ID":43745,"CENTER_LON":-64.78692721,"CENTER_LAT":17.9678899,"ADM0_VIZ_NAME":"United States Virgin Islands","Short_Name_ZH":"美属维尔京群岛\r\n","Short_Name_FR":null,"Short_Name_ES":null,"Short_Name_RU":null,"Short_Name_AR":null,"GlobalID":"93d471c2-2bb6-41d3-b24b-a422136c6cda"}},{"attributes":{"ADM0_NAME":"Aruba","DateOfReport":1584921600000,"cum_conf":9,"cum_death":0,"ID":43746,"CENTER_LON":-69.97713313,"CENTER_LAT":12.51668736,"ADM0_VIZ_NAME":"Aruba","Short_Name_ZH":"阿鲁巴\r\n","Short_Name_FR":null,"Short_Name_ES":null,"Short_Name_RU":null,"Short_Name_AR":null,"GlobalID":"6114f6ed-3223-4f4e-988a-a783e33c246a"}},{"attributes":{"ADM0_NAME":"Saint Martin","DateOfReport":1584921600000,"cum_conf":8,"cum_death":0,"ID":43747,"CENTER_LON":-63.06457229,"CENTER_LAT":18.0876049,"ADM0_VIZ_NAME":"Saint Martin","Short_Name_ZH":"圣马丁岛\r\n","Short_Name_FR":null,"Short_Name_ES":null,"Short_Name_RU":null,"Short_Name_AR":null,"GlobalID":"1db5c952-a504-4eeb-9192-ad26801b61ee"}},{"attributes":{"ADM0_NAME":"Bermuda","DateOfReport":1584921600000,"cum_conf":6,"cum_death":0,"ID":43748,"CENTER_LON":-64.75637722,"CENTER_LAT":32.31349498,"ADM0_VIZ_NAME":"Bermuda","Short_Name_ZH":"百慕大\r\n","Short_Name_FR":null,"Short_Name_ES":null,"Short_Name_RU":null,"Short_Name_AR":null,"GlobalID":"9f9a39f2-c364-4dd6-8ab5-991038970b59"}},{"attributes":{"ADM0_NAME":"Haiti","DateOfReport":1584921600000,"cum_conf":6,"cum_death":0,"ID":43749,"CENTER_LON":-72.68358014,"CENTER_LAT":18.93900136,"ADM0_VIZ_NAME":"Haiti","Short_Name_ZH":"海地","Short_Name_FR":"Haïti","Short_Name_ES":"Haití","Short_Name_RU":"Гаити","Short_Name_AR":"هايتي","GlobalID":"bd1a0549-e3f2-4c01-9110-7c9f2755e768"}},{"attributes":{"ADM0_NAME":"Cayman Islands","DateOfReport":1584921600000,"cum_conf":5,"cum_death":1,"ID":43750,"CENTER_LON":-80.82909683,"CENTER_LAT":19.431525,"ADM0_VIZ_NAME":"Cayman Islands","Short_Name_ZH":"开曼群岛\r\n","Short_Name_FR":null,"Short_Name_ES":null,"Short_Name_RU":null,"Short_Name_AR":null,"GlobalID":"e018990b-e6bd-425e-a00d-3d49bfb0a4e6"}},{"attributes":{"ADM0_NAME":"Guyana","DateOfReport":1584921600000,"cum_conf":5,"cum_death":1,"ID":43751,"CENTER_LON":-58.97416349,"CENTER_LAT":4.79237827,"ADM0_VIZ_NAME":"Guyana","Short_Name_ZH":"圭亚那","Short_Name_FR":"Guyana","Short_Name_ES":"Guyana","Short_Name_RU":"Гайана","Short_Name_AR":"غيانا","GlobalID":"7cd51399-fcb4-4003-b569-439e59d7de6c"}},{"attributes":{"ADM0_NAME":"Bahamas","DateOfReport":1584921600000,"cum_conf":4,"cum_death":0,"ID":43752,"CENTER_LON":-76.5004385,"CENTER_LAT":24.1666829,"ADM0_VIZ_NAME":"Bahamas","Short_Name_ZH":"巴哈马","Short_Name_FR":"Bahamas","Short_Name_ES":"Bahamas","Short_Name_RU":"Багамские Острова","Short_Name_AR":"جزر البهاما","GlobalID":"a47df271-8f36-46b2-ad77-bfac3b2c52d8"}},{"attributes":{"ADM0_NAME":"Curacao","DateOfReport":1584921600000,"cum_conf":4,"cum_death":1,"ID":43753,"CENTER_LON":-68.96749055,"CENTER_LAT":12.18779752,"ADM0_VIZ_NAME":"Curacao","Short_Name_ZH":"库拉索岛\r\n","Short_Name_FR":null,"Short_Name_ES":null,"Short_Name_RU":null,"Short_Name_AR":null,"GlobalID":"88c9d7da-4c4f-45a8-8014-ae8dda07c736"}},{"attributes":{"ADM0_NAME":"El Salvador","DateOfReport":1584921600000,"cum_conf":3,"cum_death":0,"ID":43754,"CENTER_LON":-88.86560674,"CENTER_LAT":13.73614532,"ADM0_VIZ_NAME":"El Salvador","Short_Name_ZH":"萨尔瓦多","Short_Name_FR":"El Salvador","Short_Name_ES":"El Salvador","Short_Name_RU":"Сальвадор","Short_Name_AR":"السلفادور","GlobalID":"40356381-9250-4b27-b97c-2f8674d0d9d2"}},{"attributes":{"ADM0_NAME":"Saint Barthelemy","DateOfReport":1584921600000,"cum_conf":3,"cum_death":0,"ID":43755,"CENTER_LON":-62.83353803,"CENTER_LAT":17.9057614,"ADM0_VIZ_NAME":"Saint Barthelemy","Short_Name_ZH":"圣巴泰勒米\r\n","Short_Name_FR":null,"Short_Name_ES":null,"Short_Name_RU":null,"Short_Name_AR":null,"GlobalID":"1ab76e22-d673-4777-963b-889f6eb3d267"}},{"attributes":{"ADM0_NAME":"Saint Lucia","DateOfReport":1584921600000,"cum_conf":3,"cum_death":0,"ID":43756,"CENTER_LON":-60.96869084,"CENTER_LAT":13.89811518,"ADM0_VIZ_NAME":"Saint Lucia","Short_Name_ZH":"圣卢西亚","Short_Name_FR":"Sainte-Lucie","Short_Name_ES":"Santa Lucía","Short_Name_RU":"Сент-Люсия","Short_Name_AR":"سانت لوسيا","GlobalID":"fd69f3ff-517f-47de-a7a3-51ac62713d50"}},{"attributes":{"ADM0_NAME":"Nicaragua","DateOfReport":1584921600000,"cum_conf":2,"cum_death":0,"ID":43757,"CENTER_LON":-85.03375025,"CENTER_LAT":12.84006976,"ADM0_VIZ_NAME":"Nicaragua","Short_Name_ZH":"尼加拉瓜","Short_Name_FR":"Nicaragua","Short_Name_ES":"Nicaragua","Short_Name_RU":"Никарагуа","Short_Name_AR":"نيكاراغوا","GlobalID":"9fe3f4df-389a-4013-a0e1-0554497cacb2"}},{"attributes":{"ADM0_NAME":"Sint Maarten","DateOfReport":1584921600000,"cum_conf":2,"cum_death":0,"ID":43758,"CENTER_LON":-63.06194338,"CENTER_LAT":18.04683524,"ADM0_VIZ_NAME":"Sint Maarten","Short_Name_ZH":"圣马丁\r\n","Short_Name_FR":null,"Short_Name_ES":null,"Short_Name_RU":null,"Short_Name_AR":null,"GlobalID":"96b31e50-ee5d-4751-b0af-0a05585d01be"}},{"attributes":{"ADM0_NAME":"Suriname","DateOfReport":1584921600000,"cum_conf":2,"cum_death":0,"ID":43759,"CENTER_LON":-55.91158124,"CENTER_LAT":4.12671321,"ADM0_VIZ_NAME":"Suriname","Short_Name_ZH":"苏里南","Short_Name_FR":"Suriname","Short_Name_ES":"Suriname","Short_Name_RU":"Суринам","Short_Name_AR":"سورينام","GlobalID":"b475e7ae-8235-473f-b82a-66f0f6715d01"}},{"attributes":{"ADM0_NAME":"Antigua and Barbuda","DateOfReport":1584921600000,"cum_conf":1,"cum_death":0,"ID":43760,"CENTER_LON":-61.79112759,"CENTER_LAT":17.280137,"ADM0_VIZ_NAME":"Antigua and Barbuda","Short_Name_ZH":"安提瓜和巴布达","Short_Name_FR":"Antigua-et-Barbuda","Short_Name_ES":"Antigua y Barbuda","Short_Name_RU":"Антигуа и Барбуда","Short_Name_AR":"أنتيغوا وبربودا","GlobalID":"529b9545-fb40-4d9c-ab58-008d58265998"}},{"attributes":{"ADM0_NAME":"Belize","DateOfReport":1584921600000,"cum_conf":1,"cum_death":0,"ID":43761,"CENTER_LON":-88.68278545,"CENTER_LAT":17.21852829,"ADM0_VIZ_NAME":"Belize","Short_Name_ZH":"伯利兹","Short_Name_FR":"Belize","Short_Name_ES":"Belice","Short_Name_RU":"Белиз","Short_Name_AR":"بليز","GlobalID":"ee0b465b-51b2-4f87-a50f-ab53c49a75a4"}},{"attributes":{"ADM0_NAME":"Dominica","DateOfReport":1584921600000,"cum_conf":1,"cum_death":0,"ID":43762,"CENTER_LON":-61.35549385,"CENTER_LAT":15.43661252,"ADM0_VIZ_NAME":"Dominica","Short_Name_ZH":"多米尼克","Short_Name_FR":"Dominique","Short_Name_ES":"Dominica","Short_Name_RU":"Доминика","Short_Name_AR":"دومينيكا","GlobalID":"ba7a78c4-e249-42be-8ba7-65311c76b93c"}},{"attributes":{"ADM0_NAME":"Grenada","DateOfReport":1584921600000,"cum_conf":1,"cum_death":0,"ID":43763,"CENTER_LON":-61.65003909,"CENTER_LAT":12.16251573,"ADM0_VIZ_NAME":"Grenada","Short_Name_ZH":"格林纳达","Short_Name_FR":"Grenade","Short_Name_ES":"Granada","Short_Name_RU":"Гренада","Short_Name_AR":"غرينادا","GlobalID":"edb64d35-1ee6-4a31-9ddf-a41cfbf80008"}},{"attributes":{"ADM0_NAME":"Montserrat","DateOfReport":1584921600000,"cum_conf":1,"cum_death":0,"ID":43764,"CENTER_LON":-62.18692145,"CENTER_LAT":16.73575969,"ADM0_VIZ_NAME":"Montserrat","Short_Name_ZH":"蒙特塞拉特岛\r\n","Short_Name_FR":null,"Short_Name_ES":null,"Short_Name_RU":null,"Short_Name_AR":null,"GlobalID":"651057a5-3f8c-45f2-b345-472509d01c8a"}},{"attributes":{"ADM0_NAME":"Saint Vincent and the Grenadines","DateOfReport":1584921600000,"cum_conf":1,"cum_death":0,"ID":43765,"CENTER_LON":-61.20753009,"CENTER_LAT":13.20205468,"ADM0_VIZ_NAME":"Saint Vincent and the Grenadines","Short_Name_ZH":"圣文森特和格林纳丁斯","Short_Name_FR":"Saint-Vincent-et-les Grenadines","Short_Name_ES":"San Vicente y las Granadinas","Short_Name_RU":"Сент-Винсент и Гренадины","Short_Name_AR":"سانت فنسنت وجزر غرينادين","GlobalID":"5768deba-7afb-4ef0-a613-ab9111a7d444"}},{"attributes":{"ADM0_NAME":"Turks and Caicos Islands","DateOfReport":1584921600000,"cum_conf":1,"cum_death":0,"ID":43766,"CENTER_LON":-71.88207917,"CENTER_LAT":21.80869292,"ADM0_VIZ_NAME":"Turks and Caicos Islands","Short_Name_ZH":"特克斯和凯科斯群岛\r\n","Short_Name_FR":null,"Short_Name_ES":null,"Short_Name_RU":null,"Short_Name_AR":null,"GlobalID":"9ce8c5c0-7932-4f1d-9781-cdbe0834a18b"}},{"attributes":{"ADM0_NAME":"South Africa","DateOfReport":1584921600000,"cum_conf":402,"cum_death":0,"ID":43770,"CENTER_LON":25.08871199,"CENTER_LAT":-28.99321352,"ADM0_VIZ_NAME":"South Africa","Short_Name_ZH":"南非","Short_Name_FR":"Afrique du Sud","Short_Name_ES":"Sudáfrica","Short_Name_RU":"Южная Африка","Short_Name_AR":"جنوب أفريقيا","GlobalID":"390713e8-a71c-4235-84ff-b5ce55568ea4"}},{"attributes":{"ADM0_NAME":"Algeria","DateOfReport":1584921600000,"cum_conf":231,"cum_death":17,"ID":43771,"CENTER_LON":2.63236595,"CENTER_LAT":28.16335741,"ADM0_VIZ_NAME":"Algeria","Short_Name_ZH":"阿尔及利亚","Short_Name_FR":"Algérie","Short_Name_ES":"Argelia","Short_Name_RU":"Алжир","Short_Name_AR":"الجزائر","GlobalID":"b25218ea-ad9a-4f50-8d52-1c8e7bdb1c28"}},{"attributes":{"ADM0_NAME":"Burkina Faso","DateOfReport":1584921600000,"cum_conf":99,"cum_death":3,"ID":43772,"CENTER_LON":-1.73983521,"CENTER_LAT":12.27793715,"ADM0_VIZ_NAME":"Burkina Faso","Short_Name_ZH":"布基纳法索","Short_Name_FR":"Burkina Faso","Short_Name_ES":"Burkina Faso","Short_Name_RU":"Буркина-Фасо","Short_Name_AR":"بوركينا فاسو","GlobalID":"68d3c07a-511f-450e-9122-6283795ec31e"}},{"attributes":{"ADM0_NAME":"Senegal","DateOfReport":1584921600000,"cum_conf":79,"cum_death":0,"ID":43773,"CENTER_LON":-14.46817708,"CENTER_LAT":14.36697954,"ADM0_VIZ_NAME":"Senegal","Short_Name_ZH":"塞内加尔","Short_Name_FR":"Sénégal","Short_Name_ES":"Senegal","Short_Name_RU":"Сенегал","Short_Name_AR":"السنغال","GlobalID":"4b928f2d-b5d1-4917-9b59-ab368e5e6279"}},{"attributes":{"ADM0_NAME":"Cameroon","DateOfReport":1584921600000,"cum_conf":72,"cum_death":0,"ID":43774,"CENTER_LON":12.7432535,"CENTER_LAT":5.68580436,"ADM0_VIZ_NAME":"Cameroon","Short_Name_ZH":"喀麦隆","Short_Name_FR":"Cameroun","Short_Name_ES":"Camerún","Short_Name_RU":"Камерун","Short_Name_AR":"الكاميرون","GlobalID":"90610136-608c-4972-9f49-1ff710aa974e"}},{"attributes":{"ADM0_NAME":"Réunion","DateOfReport":1584921600000,"cum_conf":71,"cum_death":0,"ID":43775,"CENTER_LON":55.53821274,"CENTER_LAT":-21.12162946,"ADM0_VIZ_NAME":"Réunion","Short_Name_ZH":"留尼汪岛\r\n","Short_Name_FR":null,"Short_Name_ES":null,"Short_Name_RU":null,"Short_Name_AR":null,"GlobalID":"c546366d-2a01-422a-b751-4c2460652fcd"}},{"attributes":{"ADM0_NAME":"Democratic Republic of the Congo","DateOfReport":1584921600000,"cum_conf":36,"cum_death":2,"ID":43776,"CENTER_LON":23.65431545,"CENTER_LAT":-2.87622576,"ADM0_VIZ_NAME":"Democratic Republic of the Congo","Short_Name_ZH":"刚果民主共和国","Short_Name_FR":"République démocratique du Congo","Short_Name_ES":"República Democrática del Congo","Short_Name_RU":"Демократическая Республика Конго","Short_Name_AR":"جمهورية الكونغو الديمقراطية ","GlobalID":"86b249e2-e40c-4f17-b862-f9533e061ff4"}},{"attributes":{"ADM0_NAME":"Mauritius","DateOfReport":1584921600000,"cum_conf":36,"cum_death":0,"ID":43777,"CENTER_LON":57.868476,"CENTER_LAT":-20.1700678,"ADM0_VIZ_NAME":"Mauritius","Short_Name_ZH":"毛里求斯","Short_Name_FR":"Maurice","Short_Name_ES":"Mauricio","Short_Name_RU":"Маврикий","Short_Name_AR":"موريشيوس","GlobalID":"c2ee6a2c-2439-4217-a7b3-0539d61490be"}},{"attributes":{"ADM0_NAME":"Rwanda","DateOfReport":1584921600000,"cum_conf":36,"cum_death":0,"ID":43778,"CENTER_LON":29.91720553,"CENTER_LAT":-1.99796798,"ADM0_VIZ_NAME":"Rwanda","Short_Name_ZH":"卢旺达","Short_Name_FR":"Rwanda","Short_Name_ES":"Rwanda","Short_Name_RU":"Руанда","Short_Name_AR":"رواندا","GlobalID":"a39f9bf6-39bb-4f56-b9b6-c5745e32417b"}},{"attributes":{"ADM0_NAME":"Ghana","DateOfReport":1584921600000,"cum_conf":27,"cum_death":2,"ID":43779,"CENTER_LON":-1.20704619,"CENTER_LAT":7.95964382,"ADM0_VIZ_NAME":"Ghana","Short_Name_ZH":"加纳","Short_Name_FR":"Ghana","Short_Name_ES":"Ghana","Short_Name_RU":"Гана","Short_Name_AR":"غانا","GlobalID":"e43550c2-85a4-477a-a583-495afbcf5cfd"}},{"attributes":{"ADM0_NAME":"Cote d’Ivoire","DateOfReport":1584921600000,"cum_conf":25,"cum_death":0,"ID":43780,"CENTER_LON":-5.55549992,"CENTER_LAT":7.6317253,"ADM0_VIZ_NAME":"Côte d’Ivoire","Short_Name_ZH":"科特迪瓦","Short_Name_FR":"Côte d'Ivoire","Short_Name_ES":"Côte d'Ivoire","Short_Name_RU":"Кот-д'Ивуар","Short_Name_AR":"كوت ديفوار","GlobalID":"86e5a646-0f78-442a-be9a-c56878bc0fbf"}},{"attributes":{"ADM0_NAME":"Mayotte","DateOfReport":1584921600000,"cum_conf":24,"cum_death":0,"ID":43781,"CENTER_LON":45.13926174,"CENTER_LAT":-12.81835006,"ADM0_VIZ_NAME":"Mayotte","Short_Name_ZH":"马约特岛\r\n","Short_Name_FR":null,"Short_Name_ES":null,"Short_Name_RU":null,"Short_Name_AR":null,"GlobalID":"3da410ba-aa48-4d7f-88a2-6c81a111df63"}},{"attributes":{"ADM0_NAME":"Nigeria","DateOfReport":1584921600000,"cum_conf":22,"cum_death":0,"ID":43782,"CENTER_LON":8.10527726,"CENTER_LAT":9.59360399,"ADM0_VIZ_NAME":"Nigeria","Short_Name_ZH":"尼日利亚","Short_Name_FR":"Nigéria","Short_Name_ES":"Nigeria","Short_Name_RU":"Нигерия","Short_Name_AR":"نيجيريا","GlobalID":"1d9facdb-e79d-451f-acc4-429b517d4b36"}},{"attributes":{"ADM0_NAME":"Togo","DateOfReport":1584921600000,"cum_conf":18,"cum_death":0,"ID":43783,"CENTER_LON":0.97584596,"CENTER_LAT":8.53491037,"ADM0_VIZ_NAME":"Togo","Short_Name_ZH":"多哥","Short_Name_FR":"Togo","Short_Name_ES":"Togo (el)","Short_Name_RU":"Того","Short_Name_AR":"توغو","GlobalID":"423a623b-cf15-4ef6-a376-b7d618d9ca49"}},{"attributes":{"ADM0_NAME":"Kenya","DateOfReport":1584921600000,"cum_conf":16,"cum_death":0,"ID":43784,"CENTER_LON":37.85786442,"CENTER_LAT":0.52978018,"ADM0_VIZ_NAME":"Kenya","Short_Name_ZH":"肯尼亚","Short_Name_FR":"Kenya","Short_Name_ES":"Kenya","Short_Name_RU":"Кения","Short_Name_AR":"كينيا","GlobalID":"71c90f10-fd58-4d68-acdf-bf934d48295e"}},{"attributes":{"ADM0_NAME":"Madagascar","DateOfReport":1584921600000,"cum_conf":13,"cum_death":0,"ID":43785,"CENTER_LON":46.70599248,"CENTER_LAT":-19.37352133,"ADM0_VIZ_NAME":"Madagascar","Short_Name_ZH":"马达加斯加","Short_Name_FR":"Madagascar","Short_Name_ES":"Madagascar","Short_Name_RU":"Мадагаскар","Short_Name_AR":"مدغشقر","GlobalID":"f8445ec2-dc52-4973-ac3e-a1391247fe85"}},{"attributes":{"ADM0_NAME":"United Republic of Tanzania","DateOfReport":1584921600000,"cum_conf":12,"cum_death":0,"ID":43786,"CENTER_LON":34.82340201,"CENTER_LAT":-6.27019905,"ADM0_VIZ_NAME":"United Republic of Tanzania","Short_Name_ZH":"坦桑尼亚联合共和国","Short_Name_FR":"République-Unie de Tanzanie","Short_Name_ES":"República Unida de Tanzanía","Short_Name_RU":"Объединенная Республика Танзания","Short_Name_AR":"جمهورية تنزانيا المتحدة","GlobalID":"83c8361e-83f3-417d-85c6-437b1a7bb610"}},{"attributes":{"ADM0_NAME":"Ethiopia","DateOfReport":1584921600000,"cum_conf":11,"cum_death":0,"ID":43787,"CENTER_LON":39.61601894,"CENTER_LAT":8.62613927,"ADM0_VIZ_NAME":"Ethiopia","Short_Name_ZH":"埃塞俄比亚","Short_Name_FR":"Éthiopie","Short_Name_ES":"Etiopía","Short_Name_RU":"Эфиопия","Short_Name_AR":"إثيوبيا","GlobalID":"f531773c-633c-42d0-8cc0-90c08cbee405"}},{"attributes":{"ADM0_NAME":"Uganda","DateOfReport":1584921600000,"cum_conf":9,"cum_death":0,"ID":43788,"CENTER_LON":32.38622999,"CENTER_LAT":1.28008463,"ADM0_VIZ_NAME":"Uganda","Short_Name_ZH":"乌干达","Short_Name_FR":"Ouganda","Short_Name_ES":"Uganda","Short_Name_RU":"Уганда","Short_Name_AR":"أوغندا","GlobalID":"c555cc5f-60b1-4525-aaec-eb4acadc09cd"}},{"attributes":{"ADM0_NAME":"Seychelles","DateOfReport":1584921600000,"cum_conf":7,"cum_death":0,"ID":43789,"CENTER_LON":52.23005901,"CENTER_LAT":-6.39906405,"ADM0_VIZ_NAME":"Seychelles","Short_Name_ZH":"塞舌尔","Short_Name_FR":"Seychelles","Short_Name_ES":"Seychelles","Short_Name_RU":"Сейшельские Острова","Short_Name_AR":"سيشيل","GlobalID":"4a78d6eb-4faf-4c59-ba0e-35a8970d2130"}},{"attributes":{"ADM0_NAME":"Equatorial Guinea","DateOfReport":1584921600000,"cum_conf":6,"cum_death":0,"ID":43790,"CENTER_LON":10.33849628,"CENTER_LAT":1.7101686,"ADM0_VIZ_NAME":"Equatorial Guinea","Short_Name_ZH":"赤道几内亚","Short_Name_FR":"Guinée équatoriale","Short_Name_ES":"Guinea Ecuatorial","Short_Name_RU":"Экваториальная Гвинея","Short_Name_AR":"غينيا الاستوائية","GlobalID":"46275514-d394-4015-8a21-3e61e1c49d2e"}},{"attributes":{"ADM0_NAME":"Gabon","DateOfReport":1584921600000,"cum_conf":6,"cum_death":1,"ID":43791,"CENTER_LON":11.79715762,"CENTER_LAT":-0.59067797,"ADM0_VIZ_NAME":"Gabon","Short_Name_ZH":"加蓬","Short_Name_FR":"Gabon","Short_Name_ES":"Gabón","Short_Name_RU":"Габон","Short_Name_AR":"غابون","GlobalID":"4b086e49-e09c-4ac9-9da9-5d5552b84f41"}},{"attributes":{"ADM0_NAME":"Benin","DateOfReport":1584921600000,"cum_conf":5,"cum_death":0,"ID":43792,"CENTER_LON":2.34326271,"CENTER_LAT":9.64764997,"ADM0_VIZ_NAME":"Benin","Short_Name_ZH":"贝宁","Short_Name_FR":"Bénin","Short_Name_ES":"Benin","Short_Name_RU":"Бенин","Short_Name_AR":"بنن","GlobalID":"f766d5cd-2c76-430d-a64a-7f0f58eb0a06"}},{"attributes":{"ADM0_NAME":"Central African Republic","DateOfReport":1584921600000,"cum_conf":4,"cum_death":0,"ID":43793,"CENTER_LON":20.48278081,"CENTER_LAT":6.57145342,"ADM0_VIZ_NAME":"Central African Republic","Short_Name_ZH":"中非共和国","Short_Name_FR":"République centrafricaine","Short_Name_ES":"República Centroafricana","Short_Name_RU":"Центральноафриканская Республика","Short_Name_AR":"جمهورية أفريقيا الوسطى","GlobalID":"a409ecae-f0b3-40bf-93d5-3413c718ffb2"}},{"attributes":{"ADM0_NAME":"Congo","DateOfReport":1584921600000,"cum_conf":4,"cum_death":0,"ID":43794,"CENTER_LON":15.22427459,"CENTER_LAT":-0.84006603,"ADM0_VIZ_NAME":"Congo","Short_Name_ZH":"刚果","Short_Name_FR":"Congo","Short_Name_ES":"Congo (el)","Short_Name_RU":"Конго","Short_Name_AR":"الكونغو","GlobalID":"e4cda6cb-0d5b-49a4-a6dc-0de8251f657e"}},{"attributes":{"ADM0_NAME":"Eswatini","DateOfReport":1584921600000,"cum_conf":4,"cum_death":0,"ID":43795,"CENTER_LON":31.4971888,"CENTER_LAT":-26.56211674,"ADM0_VIZ_NAME":"Eswatini","Short_Name_ZH":"斯威士兰","Short_Name_FR":"Eswatini","Short_Name_ES":"Eswatini","Short_Name_RU":"Эсватини","Short_Name_AR":"إسواتيني","GlobalID":"aa6c3034-ddcf-46b3-ae13-564730e90678"}},{"attributes":{"ADM0_NAME":"Guinea","DateOfReport":1584921600000,"cum_conf":4,"cum_death":0,"ID":43796,"CENTER_LON":-10.94182542,"CENTER_LAT":10.43854094,"ADM0_VIZ_NAME":"Guinea","Short_Name_ZH":"几内亚","Short_Name_FR":"Guinée","Short_Name_ES":"Guinea","Short_Name_RU":"Гвинея","Short_Name_AR":"غينيا","GlobalID":"d47e0107-e635-4fa9-a790-88cb568f133c"}},{"attributes":{"ADM0_NAME":"Cabo Verde","DateOfReport":1584921600000,"cum_conf":3,"cum_death":0,"ID":43797,"CENTER_LON":-23.545,"CENTER_LAT":14.928,"ADM0_VIZ_NAME":"Cabo Verde","Short_Name_ZH":"佛得角","Short_Name_FR":"Cabo Verde","Short_Name_ES":"Cabo Verde","Short_Name_RU":"Кабо-Верде","Short_Name_AR":"كابو فيردي","GlobalID":"a6f597f8-affb-4e47-8284-1d0cafc47f17"}},{"attributes":{"ADM0_NAME":"Chad","DateOfReport":1584921600000,"cum_conf":3,"cum_death":0,"ID":43798,"CENTER_LON":18.66460339,"CENTER_LAT":15.3611457,"ADM0_VIZ_NAME":"Chad","Short_Name_ZH":"乍得","Short_Name_FR":"Tchad","Short_Name_ES":"Chad (el)","Short_Name_RU":"Чад","Short_Name_AR":"تشاد","GlobalID":"7ed0683b-ffc9-4a3c-8645-c9d06aeb90ec"}},{"attributes":{"ADM0_NAME":"Liberia","DateOfReport":1584921600000,"cum_conf":3,"cum_death":0,"ID":43799,"CENTER_LON":-9.30784656,"CENTER_LAT":6.44811846,"ADM0_VIZ_NAME":"Liberia","Short_Name_ZH":"利比里亚","Short_Name_FR":"Libéria","Short_Name_ES":"Liberia","Short_Name_RU":"Либерия","Short_Name_AR":"ليبريا","GlobalID":"e2ef423c-3edb-495c-8427-6942f21fc261"}},{"attributes":{"ADM0_NAME":"Namibia","DateOfReport":1584921600000,"cum_conf":3,"cum_death":0,"ID":43800,"CENTER_LON":17.21845028,"CENTER_LAT":-22.13329329,"ADM0_VIZ_NAME":"Namibia","Short_Name_ZH":"纳米比亚","Short_Name_FR":"Namibie","Short_Name_ES":"Namibia","Short_Name_RU":"Намибия","Short_Name_AR":"ناميبيا","GlobalID":"65f53ab1-f14b-46d8-9d22-a1fdcfa6b31d"}},{"attributes":{"ADM0_NAME":"Zambia","DateOfReport":1584921600000,"cum_conf":3,"cum_death":0,"ID":43801,"CENTER_LON":27.79788004,"CENTER_LAT":-13.45307543,"ADM0_VIZ_NAME":"Zambia","Short_Name_ZH":"赞比亚","Short_Name_FR":"Zambie","Short_Name_ES":"Zambia","Short_Name_RU":"Замбия","Short_Name_AR":"زامبيا","GlobalID":"07100821-e4e8-4bcf-b37b-baaeb5cf51dd"}},{"attributes":{"ADM0_NAME":"Angola","DateOfReport":1584921600000,"cum_conf":2,"cum_death":0,"ID":43802,"CENTER_LON":17.54379621,"CENTER_LAT":-12.29575318,"ADM0_VIZ_NAME":"Angola","Short_Name_ZH":"安哥拉","Short_Name_FR":"Angola","Short_Name_ES":"Angola","Short_Name_RU":"Ангола","Short_Name_AR":"أنغولا","GlobalID":"7416e24b-e1b7-48b5-b13e-1c6e3b0a6c2c"}},{"attributes":{"ADM0_NAME":"Mauritania","DateOfReport":1584921600000,"cum_conf":2,"cum_death":0,"ID":43803,"CENTER_LON":-10.33226041,"CENTER_LAT":20.25990361,"ADM0_VIZ_NAME":"Mauritania","Short_Name_ZH":"毛里塔尼亚","Short_Name_FR":"Mauritanie","Short_Name_ES":"Mauritania","Short_Name_RU":"Мавритания","Short_Name_AR":"موريتانيا","GlobalID":"48cad04f-1d4f-4f38-a1ad-0e43efd4effe"}},{"attributes":{"ADM0_NAME":"Niger","DateOfReport":1584921600000,"cum_conf":2,"cum_death":0,"ID":43804,"CENTER_LON":9.39765754,"CENTER_LAT":17.42632282,"ADM0_VIZ_NAME":"Niger","Short_Name_ZH":"尼日尔","Short_Name_FR":"Niger","Short_Name_ES":"Níger","Short_Name_RU":"Нигер","Short_Name_AR":"النيجر","GlobalID":"5bd2c80b-d967-481a-84b1-4cc535547a36"}},{"attributes":{"ADM0_NAME":"Zimbabwe","DateOfReport":1584921600000,"cum_conf":2,"cum_death":1,"ID":43805,"CENTER_LON":29.87175983,"CENTER_LAT":-19.00000577,"ADM0_VIZ_NAME":"Zimbabwe","Short_Name_ZH":"津巴布韦","Short_Name_FR":"Zimbabwe","Short_Name_ES":"Zimbabwe","Short_Name_RU":"Зимбабве","Short_Name_AR":"زمبابوي","GlobalID":"56592b96-365b-445e-a71d-a8b9da7d4316"}},{"attributes":{"ADM0_NAME":"Eritrea","DateOfReport":1584921600000,"cum_conf":1,"cum_death":0,"ID":43806,"CENTER_LON":38.85292555,"CENTER_LAT":15.35884102,"ADM0_VIZ_NAME":"Eritrea","Short_Name_ZH":"厄立特里亚","Short_Name_FR":"Érythrée","Short_Name_ES":"Eritrea","Short_Name_RU":"Эритрея","Short_Name_AR":"إريتريا","GlobalID":"900d3d16-e3bf-49a5-8ac1-98dc2fc0cc45"}},{"attributes":{"ADM0_NAME":"Gambia","DateOfReport":1584921600000,"cum_conf":1,"cum_death":0,"ID":43807,"CENTER_LON":-15.3856196,"CENTER_LAT":13.4529444,"ADM0_VIZ_NAME":"Gambia","Short_Name_ZH":"冈比亚","Short_Name_FR":"Gambie","Short_Name_ES":"Gambia","Short_Name_RU":"Гамбия","Short_Name_AR":"غامبيا","GlobalID":"c8c31a5d-7fbc-45d7-aa61-ddd117df12b0"}},{"attributes":{"ADM0_NAME":"Mozambique","DateOfReport":1584921600000,"cum_conf":1,"cum_death":0,"ID":43808,"CENTER_LON":35.55226053,"CENTER_LAT":-17.26019392,"ADM0_VIZ_NAME":"Mozambique","Short_Name_ZH":"莫桑比克","Short_Name_FR":"Mozambique","Short_Name_ES":"Mozambique","Short_Name_RU":"Мозамбик","Short_Name_AR":"موزامبيق","GlobalID":"f84e68bc-e0d1-40ad-b5c3-4db5e8af2bd2"}},{"attributes":{"ADM0_NAME":"International conveyance (Diamond Princess)","DateOfReport":1584921600000,"cum_conf":712,"cum_death":7,"ID":43809,"CENTER_LON":null,"CENTER_LAT":null,"ADM0_VIZ_NAME":"International conveyance (Diamond Princess)","Short_Name_ZH":"国际交通工具（“钻石公主号”邮轮）)","Short_Name_FR":null,"Short_Name_ES":null,"Short_Name_RU":null,"Short_Name_AR":null,"GlobalID":"ba292bd1-9560-4af9-8c2e-5711e70f021d"}}]}