{"objectIdFieldName":"ID","uniqueIdField":{"name":"ID","isSystemMaintained":true},"globalIdFieldName":"GlobalID","geometryType":"esriGeometryPolygon","spatialReference":{"wkid":4326,"latestWkid":4326},"fields":[{"name":"ADM0_NAME","type":"esriFieldTypeString","alias":"ADM0_NAME","sqlType":"sqlTypeOther","length":255,"domain":null,"defaultValue":null},{"name":"DateOfReport","type":"esriFieldTypeDate","alias":"DateOfReport","sqlType":"sqlTypeOther","length":8,"domain":null,"defaultValue":null},{"name":"cum_conf","type":"esriFieldTypeInteger","alias":"cum_conf","sqlType":"sqlTypeOther","domain":null,"defaultValue":null},{"name":"cum_death","type":"esriFieldTypeInteger","alias":"cum_death","sqlType":"sqlTypeOther","domain":null,"defaultValue":null},{"name":"ID","type":"esriFieldTypeOID","alias":"ID","sqlType":"sqlTypeOther","domain":null,"defaultValue":null},{"name":"CENTER_LON","type":"esriFieldTypeDouble","alias":"CENTER_LON","sqlType":"sqlTypeOther","domain":null,"defaultValue":null},{"name":"CENTER_LAT","type":"esriFieldTypeDouble","alias":"CENTER_LAT","sqlType":"sqlTypeOther","domain":null,"defaultValue":null},{"name":"ADM0_VIZ_NAME","type":"esriFieldTypeString","alias":"ADM0_VIZ_NAME","sqlType":"sqlTypeOther","length":255,"domain":null,"defaultValue":null},{"name":"Short_Name_ZH","type":"esriFieldTypeString","alias":"Short_Name_ZH","sqlType":"sqlTypeOther","length":255,"domain":null,"defaultValue":null},{"name":"Short_Name_FR","type":"esriFieldTypeString","alias":"Short_Name_FR","sqlType":"sqlTypeOther","length":255,"domain":null,"defaultValue":null},{"name":"Short_Name_ES","type":"esriFieldTypeString","alias":"Short_Name_ES","sqlType":"sqlTypeOther","length":255,"domain":null,"defaultValue":null},{"name":"Short_Name_RU","type":"esriFieldTypeString","alias":"Short_Name_RU","sqlType":"sqlTypeOther","length":255,"domain":null,"defaultValue":null},{"name":"Short_Name_AR","type":"esriFieldTypeString","alias":"Short_Name_AR","sqlType":"sqlTypeOther","length":255,"domain":null,"defaultValue":null},{"name":"GlobalID","type":"esriFieldTypeGlobalID","alias":"GlobalID","sqlType":"sqlTypeOther","length":38,"domain":null}],"features":[{"attributes":{"ADM0_NAME":"AFGHANISTAN","DateOfReport":1583625600000,"cum_conf":4,"cum_death":0,"ID":38445,"CENTER_LON":66.02652977,"CENTER_LAT":33.83890116,"ADM0_VIZ_NAME":"Afghanistan","Short_Name_ZH":"阿富汗","Short_Name_FR":"Afghanistan","Short_Name_ES":"Afganistán","Short_Name_RU":"Афганистан","Short_Name_AR":"أفغانستان","GlobalID":"2d2c0db1-18b7-4ded-a6e2-21847e2d0666"}},{"attributes":{"ADM0_NAME":"ALGERIA","DateOfReport":1583625600000,"cum_conf":17,"cum_death":0,"ID":38446,"CENTER_LON":2.63236595,"CENTER_LAT":28.16335741,"ADM0_VIZ_NAME":"Algeria","Short_Name_ZH":"阿尔及利亚","Short_Name_FR":"Algérie","Short_Name_ES":"Argelia","Short_Name_RU":"Алжир","Short_Name_AR":"الجزائر","GlobalID":"fab5a6e9-d983-4a28-8cab-061bbd9fb82d"}},{"attributes":{"ADM0_NAME":"ANDORRA","DateOfReport":1583625600000,"cum_conf":1,"cum_death":0,"ID":38447,"CENTER_LON":1.57568833,"CENTER_LAT":42.54858297,"ADM0_VIZ_NAME":"Andorra","Short_Name_ZH":"安道尔","Short_Name_FR":"Andorre","Short_Name_ES":"Andorra","Short_Name_RU":"Андорра","Short_Name_AR":"أندورا","GlobalID":"4049c593-9c99-4f4b-93bb-7437cc62ccd1"}},{"attributes":{"ADM0_NAME":"ARGENTINA","DateOfReport":1583625600000,"cum_conf":12,"cum_death":1,"ID":38448,"CENTER_LON":-65.16748474,"CENTER_LAT":-35.37667253,"ADM0_VIZ_NAME":"Argentina","Short_Name_ZH":"阿根廷 ","Short_Name_FR":"Argentine","Short_Name_ES":"Argentina","Short_Name_RU":"Аргентина","Short_Name_AR":"الأرجنتين","GlobalID":"98ac63a6-d2c8-43ea-9af9-ab6d2d4c5d51"}},{"attributes":{"ADM0_NAME":"ARMENIA","DateOfReport":1583625600000,"cum_conf":1,"cum_death":0,"ID":38449,"CENTER_LON":44.94793424,"CENTER_LAT":40.28641688,"ADM0_VIZ_NAME":"Armenia","Short_Name_ZH":"亚美尼亚","Short_Name_FR":"Arménie","Short_Name_ES":"Armenia","Short_Name_RU":"Армения","Short_Name_AR":"أرمينيا","GlobalID":"c3cf6265-e75b-4910-9199-1f48800ff7f9"}},{"attributes":{"ADM0_NAME":"AUSTRALIA","DateOfReport":1583625600000,"cum_conf":77,"cum_death":3,"ID":38450,"CENTER_LON":134.49097595,"CENTER_LAT":-25.73326023,"ADM0_VIZ_NAME":"Australia","Short_Name_ZH":"澳大利亚","Short_Name_FR":"Australie","Short_Name_ES":"Australia","Short_Name_RU":"Австралия","Short_Name_AR":"أستراليا","GlobalID":"3cc3f7dc-90df-4815-bdd6-18a8b159e553"}},{"attributes":{"ADM0_NAME":"AUSTRIA","DateOfReport":1583625600000,"cum_conf":102,"cum_death":0,"ID":38451,"CENTER_LON":14.13998831,"CENTER_LAT":47.59295768,"ADM0_VIZ_NAME":"Austria","Short_Name_ZH":"奥地利","Short_Name_FR":"Autriche","Short_Name_ES":"Austria","Short_Name_RU":"Австрия","Short_Name_AR":"النمسا","GlobalID":"1aaf4051-a99a-403b-a848-0a0602bc4495"}},{"attributes":{"ADM0_NAME":"AZERBAIJAN","DateOfReport":1583625600000,"cum_conf":9,"cum_death":0,"ID":38452,"CENTER_LON":47.53232681,"CENTER_LAT":40.2922195,"ADM0_VIZ_NAME":"Azerbaijan","Short_Name_ZH":"阿塞拜疆","Short_Name_FR":"Azerbaïdjan","Short_Name_ES":"Azerbaiyán","Short_Name_RU":"Азербайджан","Short_Name_AR":"أذربيجان","GlobalID":"6e57bc87-5415-4ae8-b6dc-fe47259fab00"}},{"attributes":{"ADM0_NAME":"BAHRAIN","DateOfReport":1583625600000,"cum_conf":79,"cum_death":0,"ID":38453,"CENTER_LON":50.56248915,"CENTER_LAT":26.01947392,"ADM0_VIZ_NAME":"Bahrain","Short_Name_ZH":"巴林","Short_Name_FR":"Bahreïn","Short_Name_ES":"Bahrein","Short_Name_RU":"Бахрейн","Short_Name_AR":"البحرين","GlobalID":"c15fa821-d515-4298-ba23-c09b79a8ffa7"}},{"attributes":{"ADM0_NAME":"BELARUS","DateOfReport":1583625600000,"cum_conf":6,"cum_death":0,"ID":38454,"CENTER_LON":28.04696448,"CENTER_LAT":53.54021951,"ADM0_VIZ_NAME":"Belarus","Short_Name_ZH":"白俄罗斯","Short_Name_FR":"Bélarus","Short_Name_ES":"Belarús","Short_Name_RU":"Беларусь","Short_Name_AR":"بيلاروس","GlobalID":"e1ee7bbb-420c-4dde-92a3-9961499b675e"}},{"attributes":{"ADM0_NAME":"BELGIUM","DateOfReport":1583625600000,"cum_conf":200,"cum_death":0,"ID":38455,"CENTER_LON":4.66434841,"CENTER_LAT":50.64295176,"ADM0_VIZ_NAME":"Belgium","Short_Name_ZH":"比利时","Short_Name_FR":"Belgique","Short_Name_ES":"Bélgica","Short_Name_RU":"Бельгия","Short_Name_AR":"بلجيكا","GlobalID":"8d39b16c-0e18-49c3-9241-33ef39fa2cea"}},{"attributes":{"ADM0_NAME":"BHUTAN","DateOfReport":1583625600000,"cum_conf":1,"cum_death":0,"ID":38456,"CENTER_LON":90.42943275,"CENTER_LAT":27.41546082,"ADM0_VIZ_NAME":"Bhutan","Short_Name_ZH":"不丹","Short_Name_FR":"Bhoutan","Short_Name_ES":"Bhután","Short_Name_RU":"Бутан","Short_Name_AR":"بوتان","GlobalID":"267b11ac-1273-4493-a94e-ab2051e9bd49"}},{"attributes":{"ADM0_NAME":"BOSNIA AND HERZEGOVINA","DateOfReport":1583625600000,"cum_conf":2,"cum_death":0,"ID":38457,"CENTER_LON":17.78861095,"CENTER_LAT":44.16643966,"ADM0_VIZ_NAME":"Bosnia and Herzegovina","Short_Name_ZH":"波斯尼亚和黑塞哥维那","Short_Name_FR":"Bosnie-Herzégovine","Short_Name_ES":"Bosnia y Herzegovina","Short_Name_RU":"Босния и Герцеговина","Short_Name_AR":"البوسنة والهرسك","GlobalID":"8147118b-eda9-4b60-89d3-bad29d193848"}},{"attributes":{"ADM0_NAME":"BRAZIL","DateOfReport":1583625600000,"cum_conf":25,"cum_death":0,"ID":38458,"CENTER_LON":-53.08875436,"CENTER_LAT":-10.7722828,"ADM0_VIZ_NAME":"Brazil","Short_Name_ZH":"巴西","Short_Name_FR":"Brésil","Short_Name_ES":"Brasil","Short_Name_RU":"Бразилия","Short_Name_AR":"البرازيل","GlobalID":"81c6d5ef-dad1-417b-9418-a6c1e8800d79"}},{"attributes":{"ADM0_NAME":"BULGARIA","DateOfReport":1583625600000,"cum_conf":4,"cum_death":0,"ID":38459,"CENTER_LON":25.23475756,"CENTER_LAT":42.76032141,"ADM0_VIZ_NAME":"Bulgaria","Short_Name_ZH":"保加利亚","Short_Name_FR":"Bulgarie","Short_Name_ES":"Bulgaria","Short_Name_RU":"Болгария","Short_Name_AR":"بلغاريا","GlobalID":"023095df-f70b-47d7-a544-cbcf2ae527aa"}},{"attributes":{"ADM0_NAME":"CAMBODIA","DateOfReport":1583625600000,"cum_conf":2,"cum_death":0,"ID":38460,"CENTER_LON":104.92123962,"CENTER_LAT":12.71402994,"ADM0_VIZ_NAME":"Cambodia","Short_Name_ZH":"柬埔寨","Short_Name_FR":"Cambodge","Short_Name_ES":"Camboya","Short_Name_RU":"Камбоджа","Short_Name_AR":"كمبوديا","GlobalID":"cb391cf3-a359-4d78-8d1f-37acb281102d"}},{"attributes":{"ADM0_NAME":"CAMEROON","DateOfReport":1583625600000,"cum_conf":2,"cum_death":0,"ID":38461,"CENTER_LON":12.7432535,"CENTER_LAT":5.68580436,"ADM0_VIZ_NAME":"Cameroon","Short_Name_ZH":"喀麦隆","Short_Name_FR":"Cameroun","Short_Name_ES":"Camerún","Short_Name_RU":"Камерун","Short_Name_AR":"الكاميرون","GlobalID":"f5e0a591-76f2-431c-b7ec-57a84cc08d59"}},{"attributes":{"ADM0_NAME":"CANADA","DateOfReport":1583625600000,"cum_conf":60,"cum_death":0,"ID":38462,"CENTER_LON":-98.26094698,"CENTER_LAT":61.3930667,"ADM0_VIZ_NAME":"Canada","Short_Name_ZH":"加拿大","Short_Name_FR":"Canada","Short_Name_ES":"Canadá","Short_Name_RU":"Канада","Short_Name_AR":"كندا","GlobalID":"827c1557-76ff-45e8-a89f-8de68dd79b8e"}},{"attributes":{"ADM0_NAME":"CHILE","DateOfReport":1583625600000,"cum_conf":10,"cum_death":0,"ID":38463,"CENTER_LON":-71.38009385,"CENTER_LAT":-37.86811922,"ADM0_VIZ_NAME":"Chile","Short_Name_ZH":"智利","Short_Name_FR":"Chili","Short_Name_ES":"Chile","Short_Name_RU":"Чили","Short_Name_AR":"شيلي","GlobalID":"a6c1d0d1-2abc-4eb2-8e62-036667074b8a"}},{"attributes":{"ADM0_NAME":"CHINA","DateOfReport":1583625600000,"cum_conf":80904,"cum_death":3123,"ID":38464,"CENTER_LON":103.8934731,"CENTER_LAT":36.51870146,"ADM0_VIZ_NAME":"China","Short_Name_ZH":"中国","Short_Name_FR":"Chine","Short_Name_ES":"China","Short_Name_RU":"Китай","Short_Name_AR":"الصين","GlobalID":"e9d6b035-05d8-4f94-bbe2-18fc6a48dff1"}},{"attributes":{"ADM0_NAME":"COLOMBIA","DateOfReport":1583625600000,"cum_conf":1,"cum_death":0,"ID":38465,"CENTER_LON":-73.07576335,"CENTER_LAT":3.90037401,"ADM0_VIZ_NAME":"Colombia","Short_Name_ZH":"哥伦比亚","Short_Name_FR":"Colombie","Short_Name_ES":"Colombia","Short_Name_RU":"Колумбия","Short_Name_AR":"كولومبيا","GlobalID":"1a854581-8082-47bb-86a5-be22753ac7de"}},{"attributes":{"ADM0_NAME":"COSTA RICA","DateOfReport":1583625600000,"cum_conf":9,"cum_death":0,"ID":38466,"CENTER_LON":-84.18903867,"CENTER_LAT":9.97052135,"ADM0_VIZ_NAME":"Costa Rica","Short_Name_ZH":"哥斯达黎加","Short_Name_FR":"Costa Rica","Short_Name_ES":"Costa Rica","Short_Name_RU":"Коста-Рика","Short_Name_AR":"كوستاريكا","GlobalID":"661aee0f-5acd-4d97-accc-c108324298ca"}},{"attributes":{"ADM0_NAME":"CROATIA","DateOfReport":1583625600000,"cum_conf":11,"cum_death":0,"ID":38467,"CENTER_LON":16.40934249,"CENTER_LAT":45.04363696,"ADM0_VIZ_NAME":"Croatia","Short_Name_ZH":"克罗地亚","Short_Name_FR":"Croatie","Short_Name_ES":"Croacia","Short_Name_RU":"Хорватия","Short_Name_AR":"كرواتيا","GlobalID":"f65978f5-c9a0-49d7-b823-e500ccf2a783"}},{"attributes":{"ADM0_NAME":"CZECH REPUBLIC","DateOfReport":1583625600000,"cum_conf":32,"cum_death":0,"ID":38468,"CENTER_LON":15.33833995,"CENTER_LAT":49.74303614,"ADM0_VIZ_NAME":"Czech Republic","Short_Name_ZH":"捷克","Short_Name_FR":"Tchéquie","Short_Name_ES":"Chequia","Short_Name_RU":"Чехия","Short_Name_AR":"تشيكيا","GlobalID":"3ca4269c-0f6e-41b5-afdd-4b88f15fef19"}},{"attributes":{"ADM0_NAME":"DENMARK","DateOfReport":1583625600000,"cum_conf":36,"cum_death":0,"ID":38469,"CENTER_LON":10.05082082,"CENTER_LAT":55.9623328,"ADM0_VIZ_NAME":"Denmark","Short_Name_ZH":"丹麦","Short_Name_FR":"Danemark","Short_Name_ES":"Dinamarca","Short_Name_RU":"Дания","Short_Name_AR":"الدانمرك","GlobalID":"31e81b4f-be74-4114-9692-5b0528f0db60"}},{"attributes":{"ADM0_NAME":"DOMINICAN REPUBLIC","DateOfReport":1583625600000,"cum_conf":1,"cum_death":0,"ID":38470,"CENTER_LON":-70.48543447,"CENTER_LAT":18.89309386,"ADM0_VIZ_NAME":"Dominican Republic","Short_Name_ZH":"多米尼加 ","Short_Name_FR":"République dominicaine","Short_Name_ES":"República Dominicana","Short_Name_RU":"Доминиканская Республика","Short_Name_AR":"الجمهورية الدومينيكية","GlobalID":"3d84898b-bc99-414b-8737-60d06a577141"}},{"attributes":{"ADM0_NAME":"ECUADOR","DateOfReport":1583625600000,"cum_conf":15,"cum_death":0,"ID":38471,"CENTER_LON":-78.78096177,"CENTER_LAT":-1.42528337,"ADM0_VIZ_NAME":"Ecuador","Short_Name_ZH":"厄瓜多尔","Short_Name_FR":"Équateur","Short_Name_ES":"Ecuador","Short_Name_RU":"Эквадор","Short_Name_AR":"إكوادور","GlobalID":"e9007461-deff-41a9-9c7c-f84088d92bd3"}},{"attributes":{"ADM0_NAME":"EGYPT","DateOfReport":1583625600000,"cum_conf":55,"cum_death":1,"ID":38472,"CENTER_LON":29.78210708,"CENTER_LAT":26.5565646,"ADM0_VIZ_NAME":"Egypt","Short_Name_ZH":"埃及","Short_Name_FR":"Égypte","Short_Name_ES":"Egipto","Short_Name_RU":"Египет","Short_Name_AR":"مصر","GlobalID":"a8c5fec9-e591-4545-92f4-cafefd268485"}},{"attributes":{"ADM0_NAME":"ESTONIA","DateOfReport":1583625600000,"cum_conf":10,"cum_death":0,"ID":38473,"CENTER_LON":25.5257709,"CENTER_LAT":58.67400787,"ADM0_VIZ_NAME":"Estonia","Short_Name_ZH":"爱沙尼亚","Short_Name_FR":"Estonie","Short_Name_ES":"Estonia","Short_Name_RU":"Эстония","Short_Name_AR":"إستونيا","GlobalID":"fcbb2ae4-35a9-45b1-8f9d-37a4461bd544"}},{"attributes":{"ADM0_NAME":"FINLAND","DateOfReport":1583625600000,"cum_conf":30,"cum_death":0,"ID":38474,"CENTER_LON":26.2588423,"CENTER_LAT":64.49433129,"ADM0_VIZ_NAME":"Finland","Short_Name_ZH":"芬兰","Short_Name_FR":"Finlande","Short_Name_ES":"Finlandia","Short_Name_RU":"Финляндия","Short_Name_AR":"فنلندا","GlobalID":"b8143d63-e146-407e-8875-76dcdde7d3c6"}},{"attributes":{"ADM0_NAME":"FRANCE","DateOfReport":1583625600000,"cum_conf":1116,"cum_death":19,"ID":38475,"CENTER_LON":2.55042646,"CENTER_LAT":46.56487403,"ADM0_VIZ_NAME":"France","Short_Name_ZH":"法国","Short_Name_FR":"France","Short_Name_ES":"Francia","Short_Name_RU":"Франция","Short_Name_AR":"فرنسا","GlobalID":"71e761af-2ab9-4c9a-953f-b73178132c60"}},{"attributes":{"ADM0_NAME":"FRENCH GUIANA","DateOfReport":1583625600000,"cum_conf":5,"cum_death":0,"ID":38476,"CENTER_LON":-53.24126696,"CENTER_LAT":3.9243882,"ADM0_VIZ_NAME":"French Guiana","Short_Name_ZH":null,"Short_Name_FR":null,"Short_Name_ES":null,"Short_Name_RU":null,"Short_Name_AR":null,"GlobalID":"93e03fc2-20f9-4016-9f7f-765fb4523dba"}},{"attributes":{"ADM0_NAME":"GEORGIA","DateOfReport":1583625600000,"cum_conf":13,"cum_death":0,"ID":38477,"CENTER_LON":43.51757115,"CENTER_LAT":42.17632583,"ADM0_VIZ_NAME":"Georgia","Short_Name_ZH":"格鲁吉亚","Short_Name_FR":"Géorgie","Short_Name_ES":"Georgia","Short_Name_RU":"Грузия","Short_Name_AR":"جورجيا","GlobalID":"1fa217a2-0c2b-48e0-8ebc-b9a7e4e168a8"}},{"attributes":{"ADM0_NAME":"GERMANY","DateOfReport":1583625600000,"cum_conf":902,"cum_death":0,"ID":38478,"CENTER_LON":10.39232967,"CENTER_LAT":51.11015396,"ADM0_VIZ_NAME":"Germany","Short_Name_ZH":"德国","Short_Name_FR":"Allemagne","Short_Name_ES":"Alemania","Short_Name_RU":"Германия","Short_Name_AR":"ألمانيا","GlobalID":"e50c781f-af58-40b9-86b8-24613b132786"}},{"attributes":{"ADM0_NAME":"GIBRALTAR","DateOfReport":1583625600000,"cum_conf":1,"cum_death":0,"ID":38479,"CENTER_LON":-5.34488893,"CENTER_LAT":36.1381932,"ADM0_VIZ_NAME":"Gibraltar","Short_Name_ZH":null,"Short_Name_FR":null,"Short_Name_ES":null,"Short_Name_RU":null,"Short_Name_AR":null,"GlobalID":"4041a43f-9e0f-4d30-8a49-3a2f1556a7f7"}},{"attributes":{"ADM0_NAME":"GREECE","DateOfReport":1583625600000,"cum_conf":73,"cum_death":0,"ID":38480,"CENTER_LON":22.9879848,"CENTER_LAT":39.04452874,"ADM0_VIZ_NAME":"Greece","Short_Name_ZH":"希腊","Short_Name_FR":"Grèce","Short_Name_ES":"Grecia","Short_Name_RU":"Греция","Short_Name_AR":"اليونان","GlobalID":"b8925a55-03d6-4b2d-b72a-972e2ed5178b"}},{"attributes":{"ADM0_NAME":"HOLY SEE","DateOfReport":1583625600000,"cum_conf":1,"cum_death":0,"ID":38481,"CENTER_LON":12.48571114,"CENTER_LAT":41.89324195,"ADM0_VIZ_NAME":"Holy See","Short_Name_ZH":null,"Short_Name_FR":null,"Short_Name_ES":null,"Short_Name_RU":null,"Short_Name_AR":null,"GlobalID":"c5cb9ccd-944f-4a01-b10f-f69e5b697c53"}},{"attributes":{"ADM0_NAME":"HUNGARY","DateOfReport":1583625600000,"cum_conf":8,"cum_death":0,"ID":38482,"CENTER_LON":19.41342813,"CENTER_LAT":47.16647906,"ADM0_VIZ_NAME":"Hungary","Short_Name_ZH":"匈牙利","Short_Name_FR":"Hongrie","Short_Name_ES":"Hungría","Short_Name_RU":"Венгрия","Short_Name_AR":"هنغاريا","GlobalID":"6931364b-e30f-40f6-be2e-ff86de86def3"}},{"attributes":{"ADM0_NAME":"ICELAND","DateOfReport":1583625600000,"cum_conf":55,"cum_death":0,"ID":38483,"CENTER_LON":-18.6057026,"CENTER_LAT":64.99764998,"ADM0_VIZ_NAME":"Iceland","Short_Name_ZH":"冰岛","Short_Name_FR":"Islande","Short_Name_ES":"Islandia","Short_Name_RU":"Исландия","Short_Name_AR":"آيسلندا","GlobalID":"bec26eee-5649-46c1-adc8-61e2b3552ac5"}},{"attributes":{"ADM0_NAME":"INDIA","DateOfReport":1583625600000,"cum_conf":39,"cum_death":0,"ID":38484,"CENTER_LON":79.6188183,"CENTER_LAT":22.88132057,"ADM0_VIZ_NAME":"India","Short_Name_ZH":"印度","Short_Name_FR":"Inde","Short_Name_ES":"India","Short_Name_RU":"Индия","Short_Name_AR":"الهند","GlobalID":"799980cd-7a2d-4b2c-9cf0-149db24b1023"}},{"attributes":{"ADM0_NAME":"INDONESIA","DateOfReport":1583625600000,"cum_conf":6,"cum_death":0,"ID":38485,"CENTER_LON":117.31101692,"CENTER_LAT":-2.22903453,"ADM0_VIZ_NAME":"Indonesia","Short_Name_ZH":"印度尼西亚","Short_Name_FR":"Indonésie","Short_Name_ES":"Indonesia","Short_Name_RU":"Индонезия","Short_Name_AR":"إندونيسيا","GlobalID":"25f1a9d1-4bd3-4f4a-bbee-e0d2d651d524"}},{"attributes":{"ADM0_NAME":"International conveyance (Diamond Princess)","DateOfReport":1583625600000,"cum_conf":696,"cum_death":7,"ID":38486,"CENTER_LON":null,"CENTER_LAT":null,"ADM0_VIZ_NAME":"International conveyance (Diamond Princess)","Short_Name_ZH":null,"Short_Name_FR":null,"Short_Name_ES":null,"Short_Name_RU":null,"Short_Name_AR":null,"GlobalID":"0147b6f4-a1a3-4853-9595-0e87cd01e7a9"}},{"attributes":{"ADM0_NAME":"IRAN (ISLAMIC REPUBLIC OF)","DateOfReport":1583625600000,"cum_conf":6566,"cum_death":194,"ID":38487,"CENTER_LON":54.30141376,"CENTER_LAT":32.56479959,"ADM0_VIZ_NAME":"Iran (Islamic Republic of)","Short_Name_ZH":"伊朗（伊斯兰共和国）","Short_Name_FR":"Iran (République islamique d')","Short_Name_ES":"Irán (República Islámica del)","Short_Name_RU":"Иран (Исламская Республика)","Short_Name_AR":"إيران (جمهورية - الإسلامية)","GlobalID":"2ecbf61d-3ee0-4879-ad88-45e2b2363ede"}},{"attributes":{"ADM0_NAME":"IRAQ","DateOfReport":1583625600000,"cum_conf":60,"cum_death":6,"ID":38488,"CENTER_LON":43.77224552,"CENTER_LAT":33.04800654,"ADM0_VIZ_NAME":"Iraq","Short_Name_ZH":"伊拉克","Short_Name_FR":"Iraq","Short_Name_ES":"Iraq","Short_Name_RU":"Ирак","Short_Name_AR":"العراق","GlobalID":"c9afbb95-b77c-47d1-b73b-ac8dc8f0ab95"}},{"attributes":{"ADM0_NAME":"IRELAND","DateOfReport":1583625600000,"cum_conf":21,"cum_death":0,"ID":38489,"CENTER_LON":-8.1515763,"CENTER_LAT":53.17708682,"ADM0_VIZ_NAME":"Ireland","Short_Name_ZH":"爱尔兰","Short_Name_FR":"Irlande","Short_Name_ES":"Irlanda","Short_Name_RU":"Ирландия","Short_Name_AR":"آيرلندا","GlobalID":"b00cee27-88a7-436e-a099-3ec3357d8ae4"}},{"attributes":{"ADM0_NAME":"ISRAEL","DateOfReport":1583625600000,"cum_conf":39,"cum_death":0,"ID":38490,"CENTER_LON":34.96598271,"CENTER_LAT":31.35805652,"ADM0_VIZ_NAME":"Israel","Short_Name_ZH":"以色列","Short_Name_FR":"Israël","Short_Name_ES":"Israel","Short_Name_RU":"Израиль","Short_Name_AR":"إسرائيل","GlobalID":"c11b778f-de76-4d8a-b67b-9a99dd7c6814"}},{"attributes":{"ADM0_NAME":"ITALY","DateOfReport":1583625600000,"cum_conf":7375,"cum_death":366,"ID":38491,"CENTER_LON":12.07165559,"CENTER_LAT":42.79119167,"ADM0_VIZ_NAME":"Italy","Short_Name_ZH":"意大利","Short_Name_FR":"Italie","Short_Name_ES":"Italia","Short_Name_RU":"Италия","Short_Name_AR":"إيطاليا","GlobalID":"9c6bdfb3-f985-4dba-b361-642ad241e050"}},{"attributes":{"ADM0_NAME":"JAPAN","DateOfReport":1583625600000,"cum_conf":488,"cum_death":7,"ID":38492,"CENTER_LON":137.97387026,"CENTER_LAT":37.53982621,"ADM0_VIZ_NAME":"Japan","Short_Name_ZH":"日本","Short_Name_FR":"Japon","Short_Name_ES":"Japón","Short_Name_RU":"Япония","Short_Name_AR":"اليابان","GlobalID":"f76746ee-e639-401d-acb0-27828e6c7d77"}},{"attributes":{"ADM0_NAME":"JORDAN","DateOfReport":1583625600000,"cum_conf":1,"cum_death":0,"ID":38493,"CENTER_LON":36.78694114,"CENTER_LAT":31.25338179,"ADM0_VIZ_NAME":"Jordan","Short_Name_ZH":"约旦","Short_Name_FR":"Jordanie","Short_Name_ES":"Jordania","Short_Name_RU":"Иордания","Short_Name_AR":"الأردن","GlobalID":"a0125253-913d-48e0-b155-8e12655bd885"}},{"attributes":{"ADM0_NAME":"KUWAIT","DateOfReport":1583625600000,"cum_conf":64,"cum_death":0,"ID":38494,"CENTER_LON":47.59355128,"CENTER_LAT":29.34250906,"ADM0_VIZ_NAME":"Kuwait","Short_Name_ZH":"科威特","Short_Name_FR":"Koweït","Short_Name_ES":"Kuwait","Short_Name_RU":"Кувейт","Short_Name_AR":"الكويت","GlobalID":"8d5ff51d-16ab-4991-ae65-9a22307a737e"}},{"attributes":{"ADM0_NAME":"LATVIA","DateOfReport":1583625600000,"cum_conf":3,"cum_death":0,"ID":38495,"CENTER_LON":24.92915332,"CENTER_LAT":56.85766939,"ADM0_VIZ_NAME":"Latvia","Short_Name_ZH":"拉脱维亚","Short_Name_FR":"Lettonie","Short_Name_ES":"Letonia","Short_Name_RU":"Латвия","Short_Name_AR":"لاتفيا","GlobalID":"cbe3af7c-cf8c-4105-9778-98481a3cfe74"}},{"attributes":{"ADM0_NAME":"LEBANON","DateOfReport":1583625600000,"cum_conf":32,"cum_death":0,"ID":38496,"CENTER_LON":35.88806123,"CENTER_LAT":33.92039304,"ADM0_VIZ_NAME":"Lebanon","Short_Name_ZH":"黎巴嫩","Short_Name_FR":"Liban","Short_Name_ES":"Líbano","Short_Name_RU":"Ливан","Short_Name_AR":"لبنان","GlobalID":"6e3c278e-2108-436a-8088-1bd043418417"}},{"attributes":{"ADM0_NAME":"LIECHTENSTEIN","DateOfReport":1583625600000,"cum_conf":1,"cum_death":0,"ID":38497,"CENTER_LON":9.55526493,"CENTER_LAT":47.15259548,"ADM0_VIZ_NAME":"Liechtenstein","Short_Name_ZH":null,"Short_Name_FR":null,"Short_Name_ES":null,"Short_Name_RU":null,"Short_Name_AR":null,"GlobalID":"cfc8d8c9-8b11-41f2-b76a-8b8ff3b4c44c"}},{"attributes":{"ADM0_NAME":"LITHUANIA","DateOfReport":1583625600000,"cum_conf":1,"cum_death":0,"ID":38498,"CENTER_LON":23.89683075,"CENTER_LAT":55.33585013,"ADM0_VIZ_NAME":"Lithuania","Short_Name_ZH":"立陶宛","Short_Name_FR":"Lituanie","Short_Name_ES":"Lituania","Short_Name_RU":"Литва","Short_Name_AR":"ليتوانيا","GlobalID":"99d4c99d-b1b5-4063-8ee4-f8eee968f211"}},{"attributes":{"ADM0_NAME":"LUXEMBOURG","DateOfReport":1583625600000,"cum_conf":2,"cum_death":0,"ID":38499,"CENTER_LON":6.08754416,"CENTER_LAT":49.77096396,"ADM0_VIZ_NAME":"Luxembourg","Short_Name_ZH":"卢森堡","Short_Name_FR":"Luxembourg","Short_Name_ES":"Luxemburgo","Short_Name_RU":"Люксембург","Short_Name_AR":"لكسمبرغ","GlobalID":"6c2d83be-c635-4e44-9079-141bd6866cc8"}},{"attributes":{"ADM0_NAME":"MALAYSIA","DateOfReport":1583625600000,"cum_conf":93,"cum_death":0,"ID":38500,"CENTER_LON":109.7115743,"CENTER_LAT":3.79382045,"ADM0_VIZ_NAME":"Malaysia","Short_Name_ZH":"马来西亚","Short_Name_FR":"Malaisie","Short_Name_ES":"Malasia","Short_Name_RU":"Малайзия","Short_Name_AR":"ماليزيا","GlobalID":"04531a5b-b9ce-475f-a012-a9c859133352"}},{"attributes":{"ADM0_NAME":"MALDIVES","DateOfReport":1583625600000,"cum_conf":4,"cum_death":0,"ID":38501,"CENTER_LON":73.25178478,"CENTER_LAT":3.37481932,"ADM0_VIZ_NAME":"Maldives","Short_Name_ZH":"马尔代夫","Short_Name_FR":"Maldives","Short_Name_ES":"Maldivas","Short_Name_RU":"Мальдивские Острова","Short_Name_AR":"ملديف","GlobalID":"877b9ed1-7f1a-4f6d-9434-4b107d56ef08"}},{"attributes":{"ADM0_NAME":"MALTA","DateOfReport":1583625600000,"cum_conf":3,"cum_death":0,"ID":38502,"CENTER_LON":14.40457358,"CENTER_LAT":35.92036651,"ADM0_VIZ_NAME":"Malta","Short_Name_ZH":"马耳他","Short_Name_FR":"Malte","Short_Name_ES":"Malta","Short_Name_RU":"Мальта","Short_Name_AR":"مالطة","GlobalID":"05c1d7d3-2760-4577-a525-752b6e4e546a"}},{"attributes":{"ADM0_NAME":"MARTINIQUE","DateOfReport":1583625600000,"cum_conf":2,"cum_death":0,"ID":38503,"CENTER_LON":-61.02147382,"CENTER_LAT":14.65277419,"ADM0_VIZ_NAME":"Martinique","Short_Name_ZH":null,"Short_Name_FR":null,"Short_Name_ES":null,"Short_Name_RU":null,"Short_Name_AR":null,"GlobalID":"5d2aff0c-6fbf-4841-a998-51cff8abbec5"}},{"attributes":{"ADM0_NAME":"MEXICO","DateOfReport":1583625600000,"cum_conf":7,"cum_death":0,"ID":38504,"CENTER_LON":-102.53499093,"CENTER_LAT":23.95092841,"ADM0_VIZ_NAME":"Mexico","Short_Name_ZH":"墨西哥","Short_Name_FR":"Mexique","Short_Name_ES":"México","Short_Name_RU":"Мексика","Short_Name_AR":"المكسيك","GlobalID":"80456b28-121b-4a62-a37f-ebb88a8e1d2b"}},{"attributes":{"ADM0_NAME":"MONACO","DateOfReport":1583625600000,"cum_conf":1,"cum_death":0,"ID":38505,"CENTER_LON":7.41201715,"CENTER_LAT":43.75034615,"ADM0_VIZ_NAME":"Monaco","Short_Name_ZH":"摩纳哥","Short_Name_FR":"Monaco","Short_Name_ES":"Mónaco","Short_Name_RU":"Монако","Short_Name_AR":"موناكو","GlobalID":"52985f27-bb1a-49d9-b904-5c180c033086"}},{"attributes":{"ADM0_NAME":"MOROCCO","DateOfReport":1583625600000,"cum_conf":2,"cum_death":0,"ID":38506,"CENTER_LON":-6.31780295,"CENTER_LAT":31.88355697,"ADM0_VIZ_NAME":"Morocco","Short_Name_ZH":"摩洛哥","Short_Name_FR":"Maroc","Short_Name_ES":"Marruecos","Short_Name_RU":"Марокко","Short_Name_AR":"المغرب","GlobalID":"09fc4269-673e-466a-913b-20a947bb34fc"}},{"attributes":{"ADM0_NAME":"NEPAL","DateOfReport":1583625600000,"cum_conf":1,"cum_death":0,"ID":38507,"CENTER_LON":83.93851707,"CENTER_LAT":28.25300785,"ADM0_VIZ_NAME":"Nepal","Short_Name_ZH":"尼泊尔","Short_Name_FR":"Népal","Short_Name_ES":"Nepal","Short_Name_RU":"Непал","Short_Name_AR":"نيبال","GlobalID":"1f78a15b-071d-4842-a0ce-69c88ceb65e6"}},{"attributes":{"ADM0_NAME":"NETHERLANDS","DateOfReport":1583625600000,"cum_conf":265,"cum_death":3,"ID":38508,"CENTER_LON":5.60099776,"CENTER_LAT":52.2535763,"ADM0_VIZ_NAME":"Netherlands","Short_Name_ZH":"荷兰","Short_Name_FR":"Pays-Bas","Short_Name_ES":"Países Bajos","Short_Name_RU":"Нидерланды","Short_Name_AR":"هولندا","GlobalID":"f977f8f2-8f9f-4d2c-9c71-7a3bb7122a99"}},{"attributes":{"ADM0_NAME":"NEW ZEALAND","DateOfReport":1583625600000,"cum_conf":5,"cum_death":0,"ID":38509,"CENTER_LON":171.60397128,"CENTER_LAT":-41.83710689,"ADM0_VIZ_NAME":"New Zealand","Short_Name_ZH":"新西兰","Short_Name_FR":"Nouvelle-Zélande","Short_Name_ES":"Nueva Zelandia","Short_Name_RU":"Новая Зеландия","Short_Name_AR":"نيوزيلندا","GlobalID":"61f1c8fd-6961-45e3-99e7-42155fe3168d"}},{"attributes":{"ADM0_NAME":"NIGERIA","DateOfReport":1583625600000,"cum_conf":1,"cum_death":0,"ID":38510,"CENTER_LON":8.10527726,"CENTER_LAT":9.59360399,"ADM0_VIZ_NAME":"Nigeria","Short_Name_ZH":"尼日利亚","Short_Name_FR":"Nigéria","Short_Name_ES":"Nigeria","Short_Name_RU":"Нигерия","Short_Name_AR":"نيجيريا","GlobalID":"97a44dd8-214f-405a-af09-6bed9c237635"}},{"attributes":{"ADM0_NAME":"NORTH MACEDONIA","DateOfReport":1583625600000,"cum_conf":3,"cum_death":0,"ID":38511,"CENTER_LON":21.6991485,"CENTER_LAT":41.59922075,"ADM0_VIZ_NAME":"North Macedonia","Short_Name_ZH":"北马其顿","Short_Name_FR":"Macédoine du Nord","Short_Name_ES":"Macedonia del Norte","Short_Name_RU":"Северная Македония","Short_Name_AR":"مقدونيا الشمالية","GlobalID":"193b23f4-6841-4a58-b3c4-e70025e3fe18"}},{"attributes":{"ADM0_NAME":"NORWAY","DateOfReport":1583625600000,"cum_conf":169,"cum_death":0,"ID":38512,"CENTER_LON":14.07508911,"CENTER_LAT":64.44784887,"ADM0_VIZ_NAME":"Norway","Short_Name_ZH":"挪威","Short_Name_FR":"Norvège","Short_Name_ES":"Noruega","Short_Name_RU":"Норвегия","Short_Name_AR":"النرويج","GlobalID":"10400bf0-2fc9-4f0d-8c79-d61fd29e101f"}},{"attributes":{"ADM0_NAME":"occupied Palestinian territory","DateOfReport":1583625600000,"cum_conf":19,"cum_death":0,"ID":38513,"CENTER_LON":35.20376878,"CENTER_LAT":31.91395114,"ADM0_VIZ_NAME":"Occupied Palestinian Territory","Short_Name_ZH":null,"Short_Name_FR":null,"Short_Name_ES":null,"Short_Name_RU":null,"Short_Name_AR":null,"GlobalID":"f96bfc6e-b3cc-4ddf-83e5-3396934f3f72"}},{"attributes":{"ADM0_NAME":"OMAN","DateOfReport":1583625600000,"cum_conf":16,"cum_death":0,"ID":38514,"CENTER_LON":56.10981747,"CENTER_LAT":20.60208368,"ADM0_VIZ_NAME":"Oman","Short_Name_ZH":"阿曼","Short_Name_FR":"Oman","Short_Name_ES":"Omán","Short_Name_RU":"Оман","Short_Name_AR":"عمان","GlobalID":"1b444388-ec3b-49b3-ac5c-77973b373554"}},{"attributes":{"ADM0_NAME":"PAKISTAN","DateOfReport":1583625600000,"cum_conf":6,"cum_death":0,"ID":38515,"CENTER_LON":69.38581881,"CENTER_LAT":29.96678898,"ADM0_VIZ_NAME":"Pakistan","Short_Name_ZH":"巴基斯坦","Short_Name_FR":"Pakistan","Short_Name_ES":"Pakistán","Short_Name_RU":"Пакистан","Short_Name_AR":"باكستان","GlobalID":"e24b10cc-3fe7-4ecc-8201-92058257484b"}},{"attributes":{"ADM0_NAME":"PERU","DateOfReport":1583625600000,"cum_conf":6,"cum_death":0,"ID":38516,"CENTER_LON":-74.37540668,"CENTER_LAT":-9.16377133,"ADM0_VIZ_NAME":"Peru","Short_Name_ZH":"秘鲁","Short_Name_FR":"Pérou","Short_Name_ES":"Perú","Short_Name_RU":"Перу","Short_Name_AR":"بيرو","GlobalID":"f442c33e-05c4-449f-b783-606efec49e2f"}},{"attributes":{"ADM0_NAME":"PHILIPPINES","DateOfReport":1583625600000,"cum_conf":10,"cum_death":1,"ID":38517,"CENTER_LON":122.87360743,"CENTER_LAT":11.74740203,"ADM0_VIZ_NAME":"Philippines","Short_Name_ZH":"菲律宾","Short_Name_FR":"Philippines","Short_Name_ES":"Filipinas","Short_Name_RU":"Филиппины","Short_Name_AR":"الفلبين","GlobalID":"e3c8e265-59b2-465f-aa29-eda50ccc2bcb"}},{"attributes":{"ADM0_NAME":"POLAND","DateOfReport":1583625600000,"cum_conf":11,"cum_death":0,"ID":38518,"CENTER_LON":19.40092017,"CENTER_LAT":52.12472405,"ADM0_VIZ_NAME":"Poland","Short_Name_ZH":"波兰","Short_Name_FR":"Pologne","Short_Name_ES":"Polonia","Short_Name_RU":"Польша","Short_Name_AR":"بولندا","GlobalID":"1b8fb781-f8fc-4eca-9bac-be89dc56afb7"}},{"attributes":{"ADM0_NAME":"PORTUGAL","DateOfReport":1583625600000,"cum_conf":30,"cum_death":0,"ID":38519,"CENTER_LON":-8.46736074,"CENTER_LAT":39.60269511,"ADM0_VIZ_NAME":"Portugal","Short_Name_ZH":"葡萄牙","Short_Name_FR":"Portugal","Short_Name_ES":"Portugal","Short_Name_RU":"Португалия","Short_Name_AR":"البرتغال","GlobalID":"a64df09d-dd47-406e-b02e-91aacaa9fd06"}},{"attributes":{"ADM0_NAME":"QATAR","DateOfReport":1583625600000,"cum_conf":12,"cum_death":0,"ID":38520,"CENTER_LON":51.19120083,"CENTER_LAT":25.31580997,"ADM0_VIZ_NAME":"Qatar","Short_Name_ZH":"卡塔尔","Short_Name_FR":"Qatar","Short_Name_ES":"Qatar","Short_Name_RU":"Катар","Short_Name_AR":"قطر","GlobalID":"c6fb3bf3-1f6e-4b89-840b-49628dfe651f"}},{"attributes":{"ADM0_NAME":"REPUBLIC OF KOREA","DateOfReport":1583625600000,"cum_conf":7382,"cum_death":51,"ID":38521,"CENTER_LON":127.82934392,"CENTER_LAT":36.36770228,"ADM0_VIZ_NAME":"Republic of Korea","Short_Name_ZH":"大韩民国","Short_Name_FR":"République de Corée","Short_Name_ES":"República de Corea","Short_Name_RU":"Республика Корея","Short_Name_AR":"جمهورية كوريا","GlobalID":"af0b77a7-544c-4b37-bf7c-0bbd7602f4d3"}},{"attributes":{"ADM0_NAME":"REPUBLIC OF MOLDOVA","DateOfReport":1583625600000,"cum_conf":1,"cum_death":0,"ID":38522,"CENTER_LON":28.47434317,"CENTER_LAT":47.19332561,"ADM0_VIZ_NAME":"Republic of Moldova","Short_Name_ZH":"摩尔多瓦共和国","Short_Name_FR":"République de Moldova","Short_Name_ES":"la República de Moldova","Short_Name_RU":"Республика Молдова","Short_Name_AR":" جمهورية مولدوفا","GlobalID":"ba53dd48-598e-40a5-b5cb-077520fe3406"}},{"attributes":{"ADM0_NAME":"ROMANIA","DateOfReport":1583625600000,"cum_conf":15,"cum_death":0,"ID":38523,"CENTER_LON":24.96990758,"CENTER_LAT":45.84360558,"ADM0_VIZ_NAME":"Romania","Short_Name_ZH":"罗马尼亚","Short_Name_FR":"Roumanie","Short_Name_ES":"Rumania","Short_Name_RU":"Румыния","Short_Name_AR":"رومانيا","GlobalID":"1b77bf30-abe5-47bb-a247-3566b49657c6"}},{"attributes":{"ADM0_NAME":"RUSSIAN FEDERATION","DateOfReport":1583625600000,"cum_conf":7,"cum_death":0,"ID":38524,"CENTER_LON":96.68944215,"CENTER_LAT":61.9882456,"ADM0_VIZ_NAME":"Russian Federation","Short_Name_ZH":"俄罗斯联邦","Short_Name_FR":"Fédération de Russie","Short_Name_ES":"Federación de Rusia","Short_Name_RU":"Российская Федерация","Short_Name_AR":"الاتحاد الروسي","GlobalID":"89ffe3fa-944f-41e2-9bbd-7a03b3e1cabb"}},{"attributes":{"ADM0_NAME":"SAINT BARTHELEMY","DateOfReport":1583625600000,"cum_conf":1,"cum_death":0,"ID":38525,"CENTER_LON":-62.83353803,"CENTER_LAT":17.9057614,"ADM0_VIZ_NAME":"Saint Barthelemy","Short_Name_ZH":null,"Short_Name_FR":null,"Short_Name_ES":null,"Short_Name_RU":null,"Short_Name_AR":null,"GlobalID":"7a574d85-31ab-43be-8e05-b59cbac281aa"}},{"attributes":{"ADM0_NAME":"SAINT MARTIN","DateOfReport":1583625600000,"cum_conf":2,"cum_death":0,"ID":38526,"CENTER_LON":-63.06457229,"CENTER_LAT":18.0876049,"ADM0_VIZ_NAME":"Saint Martin","Short_Name_ZH":null,"Short_Name_FR":null,"Short_Name_ES":null,"Short_Name_RU":null,"Short_Name_AR":null,"GlobalID":"80cc8b89-6f9f-429b-b1f3-2cf9159b8a77"}},{"attributes":{"ADM0_NAME":"SAN MARINO","DateOfReport":1583625600000,"cum_conf":37,"cum_death":1,"ID":38527,"CENTER_LON":12.46035762,"CENTER_LAT":43.94191474,"ADM0_VIZ_NAME":"San Marino","Short_Name_ZH":"圣马力诺","Short_Name_FR":"Saint-Marin","Short_Name_ES":"San Marino","Short_Name_RU":"Сан-Марино","Short_Name_AR":"سان مارينو","GlobalID":"71096d2b-804a-4dd1-afe0-4f73a114878a"}},{"attributes":{"ADM0_NAME":"SAUDI ARABIA","DateOfReport":1583625600000,"cum_conf":15,"cum_death":0,"ID":38528,"CENTER_LON":44.57044965,"CENTER_LAT":24.08088192,"ADM0_VIZ_NAME":"Saudi Arabia","Short_Name_ZH":"沙特阿拉伯","Short_Name_FR":"Arabie saoudite","Short_Name_ES":"Arabia Saudita","Short_Name_RU":"Саудовская Аравия","Short_Name_AR":"المملكة العربية السعودية","GlobalID":"1b2fb3ed-b595-46d9-af6c-ff9bd6b389f0"}},{"attributes":{"ADM0_NAME":"SENEGAL","DateOfReport":1583625600000,"cum_conf":4,"cum_death":0,"ID":38529,"CENTER_LON":-14.46817708,"CENTER_LAT":14.36697954,"ADM0_VIZ_NAME":"Senegal","Short_Name_ZH":"塞内加尔","Short_Name_FR":"Sénégal","Short_Name_ES":"Senegal","Short_Name_RU":"Сенегал","Short_Name_AR":"السنغال","GlobalID":"1e3c21a6-0c40-45fc-80e7-04b94fca5198"}},{"attributes":{"ADM0_NAME":"SERBIA","DateOfReport":1583625600000,"cum_conf":1,"cum_death":0,"ID":38530,"CENTER_LON":20.81133086,"CENTER_LAT":44.03387222,"ADM0_VIZ_NAME":"Serbia","Short_Name_ZH":"塞尔维亚","Short_Name_FR":"Serbie","Short_Name_ES":"Serbia","Short_Name_RU":"Сербия","Short_Name_AR":"صربيا","GlobalID":"78032064-befb-4df7-a7c8-53f7f3a56367"}},{"attributes":{"ADM0_NAME":"SINGAPORE","DateOfReport":1583625600000,"cum_conf":150,"cum_death":0,"ID":38531,"CENTER_LON":103.80765359,"CENTER_LAT":1.35118038,"ADM0_VIZ_NAME":"Singapore","Short_Name_ZH":"新加坡","Short_Name_FR":"Singapour","Short_Name_ES":"Singapur","Short_Name_RU":"Сингапур","Short_Name_AR":"سنغافورة","GlobalID":"0633f300-579a-4f3a-a3cb-d677a24902f6"}},{"attributes":{"ADM0_NAME":"SLOVAKIA","DateOfReport":1583625600000,"cum_conf":5,"cum_death":0,"ID":38532,"CENTER_LON":19.49145028,"CENTER_LAT":48.7073588,"ADM0_VIZ_NAME":"Slovakia","Short_Name_ZH":"斯洛伐克","Short_Name_FR":"Slovaquie","Short_Name_ES":"Eslovaquia","Short_Name_RU":"Словакия","Short_Name_AR":"سلوفاكيا","GlobalID":"347c25a4-d281-4336-8158-c3b4551daf00"}},{"attributes":{"ADM0_NAME":"SLOVENIA","DateOfReport":1583625600000,"cum_conf":16,"cum_death":0,"ID":38533,"CENTER_LON":14.82707444,"CENTER_LAT":46.12355026,"ADM0_VIZ_NAME":"Slovenia","Short_Name_ZH":"斯洛文尼亚","Short_Name_FR":"Slovénie","Short_Name_ES":"Eslovenia","Short_Name_RU":"Словения","Short_Name_AR":"سلوفينيا","GlobalID":"ef174d3d-1be7-4516-af01-c63fd8e399d0"}},{"attributes":{"ADM0_NAME":"SOUTH AFRICA","DateOfReport":1583625600000,"cum_conf":3,"cum_death":0,"ID":38534,"CENTER_LON":25.08871199,"CENTER_LAT":-28.99321352,"ADM0_VIZ_NAME":"South Africa","Short_Name_ZH":"南非","Short_Name_FR":"Afrique du Sud","Short_Name_ES":"Sudáfrica","Short_Name_RU":"Южная Африка","Short_Name_AR":"جنوب أفريقيا","GlobalID":"704e668e-26c3-4c1d-ac3a-21d1af44d0eb"}},{"attributes":{"ADM0_NAME":"SPAIN","DateOfReport":1583625600000,"cum_conf":589,"cum_death":10,"ID":38535,"CENTER_LON":-3.64931118,"CENTER_LAT":40.22749596,"ADM0_VIZ_NAME":"Spain","Short_Name_ZH":"西班牙","Short_Name_FR":"Espagne","Short_Name_ES":"España","Short_Name_RU":"Испания","Short_Name_AR":"إسبانيا","GlobalID":"9257c2b0-07ae-41ae-bc18-0ff1df20e29e"}},{"attributes":{"ADM0_NAME":"SRI LANKA","DateOfReport":1583625600000,"cum_conf":1,"cum_death":0,"ID":38536,"CENTER_LON":80.70426262,"CENTER_LAT":7.61236243,"ADM0_VIZ_NAME":"Sri Lanka","Short_Name_ZH":"斯里兰卡","Short_Name_FR":"Sri Lanka","Short_Name_ES":"Sri Lanka","Short_Name_RU":"Шри-Ланка","Short_Name_AR":"سري لانكا","GlobalID":"07e13b7f-dcff-4eb0-8969-e80315b1fbe9"}},{"attributes":{"ADM0_NAME":"SWEDEN","DateOfReport":1583625600000,"cum_conf":203,"cum_death":0,"ID":38537,"CENTER_LON":16.74115526,"CENTER_LAT":62.78774226,"ADM0_VIZ_NAME":"Sweden","Short_Name_ZH":"瑞典","Short_Name_FR":"Suède","Short_Name_ES":"Suecia","Short_Name_RU":"Швеция","Short_Name_AR":"السويد","GlobalID":"90e5bbc3-5955-439d-9c20-31f1507ae5b9"}},{"attributes":{"ADM0_NAME":"SWITZERLAND","DateOfReport":1583625600000,"cum_conf":332,"cum_death":2,"ID":38538,"CENTER_LON":8.23458738,"CENTER_LAT":46.8025828,"ADM0_VIZ_NAME":"Switzerland","Short_Name_ZH":"瑞士","Short_Name_FR":"Suisse","Short_Name_ES":"Suiza","Short_Name_RU":"Швейцария","Short_Name_AR":"سويسرا","GlobalID":"ea343765-7aed-45c6-81dd-2ffaa1040fbd"}},{"attributes":{"ADM0_NAME":"THAILAND","DateOfReport":1583625600000,"cum_conf":50,"cum_death":1,"ID":38539,"CENTER_LON":101.01490782,"CENTER_LAT":15.11989876,"ADM0_VIZ_NAME":"Thailand","Short_Name_ZH":"泰国","Short_Name_FR":"Thaïlande","Short_Name_ES":"Tailandia","Short_Name_RU":"Таиланд","Short_Name_AR":"تايلند","GlobalID":"699f46bc-6e82-4ce2-b12d-f62539699177"}},{"attributes":{"ADM0_NAME":"TOGO","DateOfReport":1583625600000,"cum_conf":1,"cum_death":0,"ID":38540,"CENTER_LON":0.97584596,"CENTER_LAT":8.53491037,"ADM0_VIZ_NAME":"Togo","Short_Name_ZH":"多哥","Short_Name_FR":"Togo","Short_Name_ES":"Togo (el)","Short_Name_RU":"Того","Short_Name_AR":"توغو","GlobalID":"c3fcd6d6-9018-4ab5-b8aa-e8ee5477dde9"}},{"attributes":{"ADM0_NAME":"TUNISIA","DateOfReport":1583625600000,"cum_conf":2,"cum_death":0,"ID":38541,"CENTER_LON":9.56156142,"CENTER_LAT":34.11124917,"ADM0_VIZ_NAME":"Tunisia","Short_Name_ZH":"突尼斯","Short_Name_FR":"Tunisie","Short_Name_ES":"Túnez","Short_Name_RU":"Тунис","Short_Name_AR":"تونس","GlobalID":"7cf1bed7-5587-4f18-ae17-019a9367bed4"}},{"attributes":{"ADM0_NAME":"UKRAINE","DateOfReport":1583625600000,"cum_conf":1,"cum_death":0,"ID":38542,"CENTER_LON":31.38784552,"CENTER_LAT":49.01609429,"ADM0_VIZ_NAME":"Ukraine","Short_Name_ZH":"乌克兰","Short_Name_FR":"Ukraine","Short_Name_ES":"Ucrania","Short_Name_RU":"Украина","Short_Name_AR":"أوكرانيا","GlobalID":"ace1919a-c49f-4e3c-ab3e-e122e77d8757"}},{"attributes":{"ADM0_NAME":"UNITED ARAB EMIRATES","DateOfReport":1583625600000,"cum_conf":45,"cum_death":0,"ID":38543,"CENTER_LON":54.33219878,"CENTER_LAT":23.91267254,"ADM0_VIZ_NAME":"United Arab Emirates","Short_Name_ZH":"阿拉伯联合酋长国","Short_Name_FR":"Émirats arabes unis","Short_Name_ES":"Emiratos Árabes Unidos","Short_Name_RU":"Объединенные Арабские Эмираты","Short_Name_AR":"الإمارات العربية المتحدة","GlobalID":"600980c1-8776-4f0c-9470-a9c19620e643"}},{"attributes":{"ADM0_NAME":"UNITED KINGDOM","DateOfReport":1583625600000,"cum_conf":277,"cum_death":2,"ID":38544,"CENTER_LON":-2.90049476,"CENTER_LAT":54.1601792,"ADM0_VIZ_NAME":"United Kingdom","Short_Name_ZH":"大不列颠及北爱尔兰联合王国","Short_Name_FR":"Royaume-Uni de Grande-Bretagne et d'Irlande du Nord","Short_Name_ES":"Reino Unido de Gran Bretaña e Irlanda del Norte","Short_Name_RU":"Соединенное Королевство Великобритании и Северной Ирландии","Short_Name_AR":"المملكة المتحدة لبريطانيا العظمى وآيرلندا الشمالية ","GlobalID":"d3fc982a-4a54-4af3-8c48-f5af75ef5647"}},{"attributes":{"ADM0_NAME":"UNITED STATES OF AMERICA","DateOfReport":1583625600000,"cum_conf":213,"cum_death":11,"ID":38545,"CENTER_LON":-112.49356447,"CENTER_LAT":45.6954816,"ADM0_VIZ_NAME":"United States of America","Short_Name_ZH":"美利坚合众国","Short_Name_FR":"États-Unis d'Amérique","Short_Name_ES":"Estados Unidos de América","Short_Name_RU":"Соединенные Штаты Америки","Short_Name_AR":"الولايات المتحدة الأمريكية ","GlobalID":"411c32a1-2afb-440b-8295-fc0366d480ac"}},{"attributes":{"ADM0_NAME":"VIET NAM","DateOfReport":1583625600000,"cum_conf":30,"cum_death":0,"ID":38546,"CENTER_LON":106.30403531,"CENTER_LAT":16.65160342,"ADM0_VIZ_NAME":"Viet Nam","Short_Name_ZH":"越南","Short_Name_FR":"Viet Nam","Short_Name_ES":"Viet Nam","Short_Name_RU":"Вьетнам","Short_Name_AR":"فييت نام","GlobalID":"4c543ac8-9e4a-4b92-b6a2-bfcad3afeae0"}},{"attributes":{"ADM0_NAME":"FAROE ISLANDS","DateOfReport":1583625600000,"cum_conf":3,"cum_death":0,"ID":38547,"CENTER_LON":-6.86363602,"CENTER_LAT":62.050314,"ADM0_VIZ_NAME":"Faroe Islands","Short_Name_ZH":null,"Short_Name_FR":null,"Short_Name_ES":null,"Short_Name_RU":null,"Short_Name_AR":null,"GlobalID":"ccf6d17f-e152-40f7-804a-9bacff839d32"}},{"attributes":{"ADM0_NAME":"BANGLADESH","DateOfReport":1583625600000,"cum_conf":3,"cum_death":0,"ID":38548,"CENTER_LON":90.27092576,"CENTER_LAT":23.8330072,"ADM0_VIZ_NAME":"Bangladesh","Short_Name_ZH":"孟加拉国","Short_Name_FR":"Bangladesh","Short_Name_ES":"Bangladesh","Short_Name_RU":"Бангладеш","Short_Name_AR":"بنغلاديش","GlobalID":"cfdb8b0a-3d04-4c2f-8910-482b0b9ae08d"}},{"attributes":{"ADM0_NAME":"ALBANIA","DateOfReport":1583625600000,"cum_conf":2,"cum_death":0,"ID":38549,"CENTER_LON":20.06917817,"CENTER_LAT":41.14595803,"ADM0_VIZ_NAME":"Albania","Short_Name_ZH":"阿尔巴尼亚","Short_Name_FR":"Albanie","Short_Name_ES":"Albania","Short_Name_RU":"Албания","Short_Name_AR":"ألبانيا","GlobalID":"e914cd73-dad9-4f11-9407-7a4c352d39fc"}}]}